name,address,city,postcode,country,lat,lng,website,operator,phone,opening_hours
King of Prussia,363 Regents Park Road,London,N3 1DH,GB,51.6008404,-0.1946078,https://www.thekingfinchley.com,Mitchells & Butlers,+44 20 81065270,Mo-Th 12:00-23:00; Fr-Sa 12:00-24:00; Su 12:00-23:00
The Catcher in the Rye,319 Regents Park Road,London,N3 1DP,GB,51.5995788,-0.196028,,,,
The Tally Ho,749 High Road,London,N12 0BP,GB,51.6141038,-0.1765556,https://thetallyhopub.co.uk/,,,
Railway Bell,,London,,GB,51.5920158,0.0279621,https://www.greeneking.co.uk/pubs/greater-london/railway-bell,,,
The Harrow,,London,,GB,51.4097991,-0.4440569,,,,
The Monkey Puzzle,30 Southwick Street,London,W2 1JQ,GB,51.5164813,-0.1698266,https://themonkeypuzzlepub.co.uk/,Hall & Woodhouse,+44 20 7723 0143,Mo-Sa 12:00-23:30; Su 12:00-22:30
The Arab Boy,289 Upper Richmond Road,London,SW15 6SP,GB,51.4628591,-0.2266975,,Greene King,,
The Union Bar,,London,,GB,51.5004234,-0.1777428,,,,"""by appointment"""
Kings Arms,425 New King's Road,London,SW6 4RN,GB,51.4691887,-0.2100687,https://www.kingsarms-fulham.co.uk/,Wadworth,,
The Waterside,The Boulevard,London,SW6 2SU,GB,51.4727261,-0.1811598,,,,
The Last Judgement,95 Chancery Lane,London,WC2A 1DT,GB,51.5153316,-0.1117428,,,,
Ship Tavern,12 Gate Street,London,WC2A 3HP,GB,51.5172518,-0.1191791,,,,
White Haus,17 Farringdon Street,London,EC4A 4AB,GB,51.5154029,-0.1043348,https://www.thewhitehaus.co.uk/,Stonegate,,
The Manor Inn,,London,,GB,51.3886519,-0.4228087,,,,
Marquess of Anglesey,39 Bow Street,London,,GB,51.5128467,-0.1212167,https://www.themarquess.co.uk/,Young's,,
The Liberty Bounds,15 Trinity Square,London,EC3N 4AA,GB,51.509731,-0.0785318,https://www.jdwetherspoon.com/pubs/all-pubs/england/london/the-liberty-bounds-tower-of-london,JD Weatherspoon,,
The Cheshire Cheese,48 Crutched Friars,London,EC3N 2AP,GB,51.5114165,-0.0776978,https://www.greatukpubs.co.uk/cheshire-cheese-tower-hill,,,Mo-Fr 11:00-23:00; Sa 12:00-22:00; Su 12:00-20:00
The Swan,,London,,GB,51.5210917,-0.1228519,https://www.greeneking.co.uk/pubs/greater-london/swan,,,
26 Furnival Street,26 Furnival Street,London,EC4A 1JS,GB,51.5167141,-0.1103638,https://www.26furnivalstreet.com/,,+44 20 3301 7555,
Crown & Cushion,133-135 Westminster Bridge Road,London,SE1 7HR,GB,51.4994616,-0.1139642,https://www.thecrownandcushion-london.foodanddrinksites.co.uk/,,+44 20 7803 0573,Mo-Sa 11:00-23:00; Su 11:00-22:30
Shortlands Tavern,Station Road,Bromley,BR2 0EY,GB,51.4053384,0.0034181,https://www.shortlandstavern.co.uk/,,+44 20 8466 0202,12:00-23:00
The Railway,,London,,GB,51.3803526,-0.0133037,,,,
The Duke of York,161 Uxbridge Road,London,W7 3SP,GB,51.5089598,-0.3385051,,,,
The Angelic,57 Liverpool Road,London,N1 0RJ,GB,51.5347892,-0.1072883,,,,
The Old Ale Emporium,405 Green Lanes,London,N4 1EU,GB,51.5780132,-0.0990941,https://the-old-ale-emporium.edan.io/,,+44 20 8348 6200,Mo-Th 11:00-00:00; Fr-Sa 11:00-01:00; Su 12:00-23:00
The Beaconsfield,359 Green Lanes,London,N4 1DZ,GB,51.5763654,-0.0987786,,,,
The Brockley Jack,408-410 Brockley Road,London,SE4 2DH,GB,51.4534062,-0.038511,https://www.greeneking.co.uk/pubs/greater-london/brockley-jack,,,
Aces and Eights Saloon Bar,156-158 Fortess Road,London,NW5 2HP,GB,51.5566538,-0.1383959,https://www.acesandeightssaloonbar.com/,,,
The Cheshire Cheese,,London,WC2R 3LD,GB,51.5123895,-0.1131849,,,+44 20 7836 2347,
The Corner Flag,472 Hornsey Road,London,,GB,51.5672223,-0.1219758,,,,
The Limping Fox,15 Rushett Road,Thames Ditton,KT7 0UX,GB,51.3860498,-0.3238196,https://www.thelimpingfox.co.uk/,,+44 20 8224 2047,
The BlackStock,284 Seven Sisters Road,London,N4 2HY,GB,51.5645126,-0.104466,,,+44 20 7561 1337,"Mo-Th 14:00-24:00; Fr 14:00-24:00; Sa 00:00-02:00,11:00-24:00; Su 00:00-02:00,11:00-24:00"
Kingswood Arms,Waterhouse Lane,Tadworth,KT20 6EB,GB,51.2949328,-0.2125085,https://www.kingswoodarms.co.uk/,,,
The White Lion of Mortimer,125-127 Stroud Green Road,London,,GB,51.5693773,-0.1126397,,,,
The Gate,,London,,GB,51.6419852,-0.2424157,,,,
The Mint,Park Road,Banstead,SM7 3DS,GB,51.3176651,-0.1901579,,,,Mo-Fr 12:00-23:00; Sa 09:00-23:00; Su 09:00-22:00
The Loft,33 Villier Street,Uxbridge,UB8 2PU,GB,51.5362244,-0.4769664,https://www.theloftuxbridge.com/,,+44 1895 753179,Mo-Fr 15:00-23:00; Sa-Su 12:00-23:00
The Crown,High Street,Uxbridge,UB8 2NL,GB,51.5310186,-0.4820512,,,+44 1895 473713,Mo-Su 12:00-22:00
The Good Mixer,30 Inverness Street,London,NW1 7HB,GB,51.5394566,-0.1446078,,,,
The Oxford Arms,265 Camden High Street,London,NW1 7BU,GB,51.5405479,-0.1443341,,,,Fr-Sa 12:00-02:00; Su-Th 12:00-01:00
The Flying Horse,,London,,GB,51.5165109,-0.1307587,https://www.nicholsonspubs.co.uk/restaurants/london/theflyinghorseoxfordstreetlondon,,,Mo-Sa 11:00-23:00; Su 12:00-22:30
Queen's Head,54 Windsor Street,Uxbridge,UB8 1AB,GB,51.5459392,-0.4799811,https://www.greeneking-pubs.co.uk/pubs/middlesex/queens-head/,,+44 1895 258750,
The Metropolitan,"8,9 Windsor Street",Uxbridge,UB8 1AB,GB,51.5454653,-0.480097,https://www.greatukpubs.co.uk/metropolitan-tavern-uxbridge,Stonegate,+44 1895 230031,Mo-Fr 10:00-22:00; Sa-Su 12:00-22:00
The Fig Tree,49 Windsor Street,Uxbridge,UB8 1AB,GB,51.5455668,-0.4802997,https://www.greeneking-pubs.co.uk/pubs/middlesex/fig-tree/,,+44 1895 257932,Mo-Th 11:00-23:00; Fr-Sa 11:00-01:00; Su 12:00-23:00
Whelans,,London,,GB,51.5476493,-0.4806061,,,,
The Three Tuns,,London,,GB,51.5456282,-0.4788813,https://www.greeneking.co.uk/pubs/middlesex/three-tuns,,,
The Wonder,,London,,GB,51.6630788,-0.0854123,,,,"Mo-Th 11:00-23:00; Su 12:00-23:00; Fr,Sa 11:00-24:00"
The Pied Bull,,London,EN2 9HE,GB,51.6781721,-0.0593586,,,,
The King and Tinker,,London,,GB,51.6813611,-0.0770974,,,,
General Napier,73 Bovill Road,London,SE23 1EX,GB,51.4455382,-0.044651,,,,
The Honor Oak,1 St Germans Road,London,SE23 1RH,GB,51.4432329,-0.0422998,https://www.honoroak.pub/,,,Su-Th 12:00-23:00; Fr-Sa 12:00-25:00
Sir John Balcombe,21 Balcombe Street,London,,GB,51.5234117,-0.1618602,,,,
The Shaftesbury Arms,121-123 Kew Road,Richmond,TW9 2PN,GB,51.465564,-0.299238,,,,
Rose and Crown,,London,,GB,51.671207,-0.083777,,British Waterways/Scottish,,Mo-Sa 12:00-23:00; Su 12:00-22:30
Cricketers Arms,,London,,GB,51.656505,-0.0874147,,,,
No.8 Seven Sisters,,London,,GB,51.5783635,-0.0819029,,,,
Goff's Oak,Newgatestreet Road,London,EN7 5RH,GB,51.7111049,-0.0873963,,,,
The Drapers Arms,24-25 High Street,London,W5 5DB,GB,51.5116826,-0.3051555,,,,
North Nineteen,,London,,GB,51.5646374,-0.1217505,,,,"Mo-Th 16:00-12:00, Fr 16:00-01:00"
The Ship,,London,,GB,51.4986033,0.2564934,,,,
The Grove,,London,,GB,51.5102956,-0.3052313,,,,
The Red Lion,,London,,GB,51.5080196,-0.3050181,https://www.theredlionw5.com/,,,
The Castle Inn,36 St Marys Road,London,W5 5EU,GB,51.5061889,-0.3053344,https://www.castleealing.co.uk/,,,
The Shanakee,,London,,GB,51.5148399,-0.302661,,,,
The North Star,,London,,GB,51.5138717,-0.3018562,,,,
The Wheatsheaf,41 Haven Lane,London,W5 2HZ,GB,51.5169211,-0.299932,https://wheatsheaf-ealing.co.uk/,Fuller's,+44 20 8997 5240,
The Haven Arms,33 Haven Lane,London,W5 2HZ,GB,51.5168303,-0.3000951,http://www.thehavenarms.co.uk/,,+44 20 8997 0378,
Lots Road,114 Lots Road,London,SW10 0RJ,GB,51.4776729,-0.1833426,https://lotsroadchelsea.co.uk/,,+44 20 7352 6645,Mo-Sa 12:00-23:00; Su 12:00-22:00
The Star Tavern,6 Belgrave Mews West,London,SW1X 8HT,GB,51.4984423,-0.155855,https://www.star-tavern-belgravia.co.uk/,Fuller's,,Mo-Fr 11:00-23:00; Sa 12:00-23:00; Su 12:00-22:30
The Queen's Larder,,London,WC1N 3AR,GB,51.5212273,-0.1225308,,,,
The Admiral Byng,Darkes Lane,Potters Bar,,GB,51.6996519,-0.1902719,https://www.jdwetherspoon.com/pubs/all-pubs/england/hertfordshire/the-admiral-byng-potters-bar,,,
The Park Tavern,19 New Road,Kingston upon Thames,KT2 6AP,GB,51.4195033,-0.2875532,,,,
The Cardinal,174 Tudor Drive,Kingston upon Thames,KT2 5QG,GB,51.4265543,-0.2982274,,,,"Tu-Th 17:30-10:30, Fr 12:30-23:30, Sa 12:30-11:30, Su 12:30-21:00"
The Bayswater Arms,,London,,GB,51.5126423,-0.187786,,Taylor Walker,,
Prince Albert,11 Pembridge Road,London,,GB,51.5095361,-0.1975022,https://www.the-prince-albert.co.uk/,,,
The Rose of York,Petersham Road,Richmond,TW10 6UY,GB,51.4505854,-0.3002861,,,,
Tommy Flynns,504 Holloway Road,London,N7 6JA,GB,51.5589274,-0.1206516,,,+442072722066,
The Shawl,320 Northolt Road,Harrow,HA2 8EE,GB,51.5628777,-0.3560203,,,,
Salt Bar,1 Roxeth Hill,Harrow,HA2 0JY,GB,51.5694406,-0.3464574,,,,
The Lord Palmerston,,London,,GB,51.3689042,-0.1619811,,,,
The Turks Head,The Broadway,Staines-upon-Thames,TW18 1SB,GB,51.4099036,-0.4888313,,,,
The Swan,789 Harrow Road,Wembley,HA0 2LP,GB,51.5556251,-0.316774,,,,
Ye Olde Swan,Summer Road,Thames Ditton,KT7 0QQ,GB,51.3929194,-0.3317479,,,,
Duke of Cambridge,,London,,GB,51.4714994,-0.3552674,,,,
Duke of York,,London,,GB,51.4675133,-0.3866606,,,,
Turnpike House,,London,,GB,51.5749285,-0.0719505,,,,
The Black Horse,,London,,GB,51.4778706,-0.3628656,,,,
Lord Nelson,32 Lower Road,Sutton,SM1 4QP,GB,51.3654748,-0.184308,,,,
The Sun,4 North Street,London,SM5 2HU,GB,51.367124,-0.1641978,http://www.thesuncarshalton.com/,,+44 20 8773 4549,Mo-Th 12:00-23:00; Fr-Sa 12:00-24:00; Su 12:00-22:30
Rose & Crown,,Wallington,SM6 7HX,GB,51.3685885,-0.1551403,,,,
The Woodlands Tavern,,London,,GB,51.4729787,-0.3376386,,,,
The Swan Inn,,London,,GB,51.4689419,-0.3241118,https://www.swaninnisleworth.co.uk/,,,
The Red Lion,,London,,GB,51.4735028,-0.3338701,,,,
The Horseshoe Bar,326 Eastcote Lane,London,,GB,51.561967,-0.3727312,,,,
Coach & Horses,,London,,GB,51.3650377,-0.1623319,,,,
Hare and Hounds,,London,,GB,51.4916527,-0.3393015,https://www.hareandhoundsosterley.co.uk/,,,
The Woodman,,London,,GB,51.3650042,-0.1625787,,,,
The Royal Oak,,London,,GB,51.4669866,-0.3408452,https://www.royaloakisleworth.co.uk/,,,
The Railway,,London,,GB,51.3562255,-0.2162302,,,,
The Grumpy Mole,,London,,GB,51.3556652,-0.2222369,,,,
The Harrow,,London,,GB,51.3576314,-0.2157505,https://www.crafted-social.co.uk/harrow-cheam,Stonegate,,
The Railway Tavern,47 North Street,Carshalton,SM5 2HG,GB,51.3693298,-0.1658625,https://www.railwaytaverncarshalton.co.uk/,,,
The Butterchurn,Erskine Road,Sutton,SM1 3AS,GB,51.369505,-0.1802281,https://www.greeneking.co.uk/pubs/surrey/butterchurn,,,
Harvest Home,27 Beddington Lane,Croydon,CR0 4TG,GB,51.3723143,-0.1316804,,,,
Horse & Groom,131 Merton High Street,London,SW19 1DE,GB,51.4155329,-0.1917749,https://www.craftunionpubs.com/horse-and-groom-wimbledon,Stonegate,,
The Sultan,78 Norman Road,London,SW19 1BN,GB,51.4185272,-0.1853025,,,,
The Nightingale,53 Carshalton Road,Sutton,SM1 4LG,GB,51.3627599,-0.1852127,,,,
The King Harold,,London,,GB,51.5940913,0.2351305,,,,
The Baring Arms,55 Baring Street,London,N1 3DS,GB,51.537057,-0.0884773,,,,
London Hospital Tavern,176 Whitechapel Road,London,E1 1BJ,GB,51.5190934,-0.0589373,,,,
The Temperance,90 Fulham High Street,London,SW6 3LF,GB,51.4693971,-0.2104963,https://www.crafted-social.co.uk/temperance-fulham,Stonegate,,
The Volunteer,245-247 Baker Street,London,,GB,51.5239797,-0.1585799,https://www.thevolunteernw1.co.uk/,,,
The Colonel Fawcett,1 Randolph Street,London,NW1 0SS,GB,51.54181,-0.1359896,https://thecolonelfawcett.co.uk/,,,
The Marlborough Arms,36 Torrington Place,London,WC1E 7HJ,GB,51.5218219,-0.1337724,https://www.greeneking.co.uk/pubs/greater-london/marlborough-arms,,,
The White Hart Inn,121 Kneller Road,London,TW2 7DY,GB,51.4557401,-0.3542958,,,,
The Duke of Cambridge,Kneller Road,London,TW2 7DT,GB,51.4547683,-0.3514212,,,,
The Duke of Wellington,260 Haggerston Road,London,E8 4EP,GB,51.5401086,-0.0744743,,,,
The Crown,28 Wickham Road,Croydon,CR0 8BA,GB,51.3736894,-0.05418,,,,
The Lord Clyde,,London,,GB,51.4666594,-0.3587255,,,,
The Bolton,326 Old Brompton Road,London,SW5 9BQ,GB,51.4895785,-0.1904313,https://www.theboltonearlscourt.co.uk/,O'Neills,,Mo-Th 12:00-23:00; Fr 12:00-00:00; Sa 10:00-00:00; Su 10:00-23:00
The Bulstrode Pub,55 Lampton Road,Hounslow,TW3 1JG,GB,51.4707517,-0.3669356,,,,
The Wharf,Wharf Road South,Grays,RM17 6SZ,GB,51.4743431,0.3145286,,,,
Shirley Inn,158 Wickham Road,Croydon,CR0 8BF,GB,51.3743818,-0.0502512,,,,
The Cricketers,107 Addiscombe Road,Croydon,CR0 6SG,GB,51.3751766,-0.0836591,,,,
The Goose at the George,5 The Town,Enfield,EN2 6LE,GB,51.6519527,-0.0814868,,,,
The Hop Poles,,London,,GB,51.6631766,-0.0773879,,,,
The Jolly Farmers,,London,,GB,51.6547576,-0.1077361,,,,
The Stag,,London,,GB,51.6528776,-0.0865804,,,,
Jolly Butchers,,London,,GB,51.6594925,-0.0799229,,,,
The Wheatsheaf,,London,,GB,51.6599599,-0.0792592,,,,
The Greystoke,7 Queens Parade,London,W5 3HU,GB,51.5169424,-0.2899892,https://www.greeneking.co.uk/pubs/greater-london/greystoke,,,
The Sir Julian Huxley,152-154 Addington Road,South Croydon,CR2 8LB,GB,51.3434396,-0.0624612,https://www.jdwetherspoon.com/pubs/the-sir-julian-huxley-selsdon,,,Mo-Th 08:00-24:00; Fr-Sa 08:00-01:00; Su 08:00-24:00
The Bricklayers Arms,237 High Street,Beckenham,BR3 1BN,GB,51.4067174,-0.0318015,,,,
Ye George Inn,111 High Street,Beckenham,BR3 1AG,GB,51.4072361,-0.0276499,https://www.thegeorgeinnbeckenham.co.uk/#/,,+44 208 663 3468,
O'Neils,9 High Street,Beckenham,BR3 1AZ,GB,51.4104781,-0.024671,,,,
Fox Under The Hill,286 Shooters Hill Road,London,SE18 4LT,GB,51.4738476,0.039705,,,+44 20 8856 5518,Mo-Th 11:00-23:00; Fr 11:00-24:00; Sa 09:00-24:00; Su 09:00-23:00
The Harrow,,London,,GB,51.3195125,-0.0429315,,,,Mo-Sa 12:00-23:00; Su 12:00-22:00
The Bull Inn,,London,,GB,51.3139216,-0.0325699,,,,
The Jolly Gardeners,,London,,GB,51.4857401,-0.4057765,,,,
Duke of St. Albans,15 Highgate Road,London,NW5 1QX,GB,51.5614305,-0.1504467,https://www.dukeofstalbans.com/,,,"Mo-Th 12:00-23:00; Fr,Sa 10:00-00:00; Su 12:00-22:00"
The Swan,2-4 High Street,West Wickham,BR4 0NJ,GB,51.3758911,-0.0148923,,,,
The Nottingham Castle,257 Wandsworth Road,London,SW8 2NB,GB,51.4787002,-0.1288063,,,,
The Alice,133 Houndsditch,London,EC3A 7BX,GB,51.5149285,-0.0778751,https://www.crafted-social.co.uk/alice-houndsditch-london,Stonegate,,
The Lion Houndsditch,31 Houndsditch,London,EC3A 7DB,GB,51.5148281,-0.0781193,,,,
The Camel,,London,,GB,51.4935531,-0.1418267,,,,
The Swan and Mitre,262 High Street,Bromley,BR1 1PG,GB,51.4070877,0.0116437,https://www.greeneking.co.uk/pubs/kent/swan-and-mitre,,,
Wattenden Arms,Old Lodge Lane,Kenley,CR8 5EU,GB,51.3076722,-0.1023778,,,,
The Bell and Crown,,London,,GB,51.4869374,-0.2830003,https://www.bell-and-crown.co.uk/,,,
The Bull's Head,,London,,GB,51.4844753,-0.2783571,https://www.chefandbrewer.com/pubs/greater-london/bulls-head,,,
The Phoenix,348 Clapham Road,London,,GB,51.4687716,-0.1270502,,,,
The Maypole,2 Hook Road,Surbiton,KT6 5BH,GB,51.3825845,-0.3009294,,,,
The New Inn,Send Road,Send,GU23 7EN,GB,51.29448,-0.5417217,https://www.thenewinnsend.com/,,,
The White Ferry,1a Sutherland Street,London,SW1V 4LD,GB,51.4889866,-0.1467405,,,,"Mo-Su,PH 00:00-00:00"
Prince Of Wales,52 Perry Rise,London,SE23 2QL,GB,51.4337044,-0.0424719,,,,
The Moon on the Hill,5-9 Hill Road,London,SM1 1DZ,GB,51.3618835,-0.1932923,https://www.jdwetherspoon.com/pubs/all-pubs/england/london/the-moon-on-the-hill-sutton,,,
The Morgan Arms,43 Morgan Street,London,E3 5AA,GB,51.5279082,-0.0309841,https://www.morganarmsbow.com/,,,Mo-Sa 12:00-23:00; Su 12:00-22:30
The Five Bells,,London,,GB,51.4571449,-0.4785802,,,,
The Rising Sun,108 - 110 Oaks Road,Staines-upon-Thames,TW19 7LB,GB,51.4602835,-0.4766612,,,,
The Pembroke Castle,150 Gloucester Avenue,London,,GB,51.5425434,-0.1548897,,,,
The County Arms,345 Trinity Road,London,SW18 3SH,GB,51.4500913,-0.1743309,,Youngs,,
The Hope,1 Bellevue Road,London,SW17 7EG,GB,51.4461541,-0.1654356,,,,
The Pineapple,25 Wilfred Street,London,SW1E 6PR,GB,51.4986377,-0.139521,https://www.greeneking.co.uk/pubs/greater-london/colonies,,,
Cask & Glass,39-41 Palace Street,London,SW1E 5HN,GB,51.4985497,-0.1402518,,,,
The Jolly Waggoners,,London,,GB,51.4777129,-0.4049338,,,,
Hen and Chickens theatre & bar,,London,,GB,51.5460243,-0.1019468,,,,
The Perry Hill,,London,,GB,51.4362614,-0.0346656,,,,
The Anchor,,London,,GB,51.2816421,-0.3683612,,,,
The Pineapple,51 Leverton Street,London,NW5 2NX,GB,51.5529728,-0.1396355,https://www.thepineapplepubnw5.com/,,+44 20 7284 4631,Mo-Th 12:00-23:00; Fr-Sa 12:00-00:00; Su 12:00-22:30
The Furzedown,118 Mitcham Lane,London,SW16 6NR,GB,51.4242687,-0.1420041,,,,
The Plough,The Broadway,Croydon,CR0 4QR,GB,51.3675107,-0.1321916,https://www.youngs.co.uk/pub-detail.asp?PubID=437,Young & Co,,
Royal Oak,86 St Anns Road,Harrow,HA1 1JP,GB,51.5816235,-0.3378121,https://www.greeneking-pubs.co.uk/pubs/middlesex/royal-oak/,,,
The Swan,,London,,GB,51.4571771,-0.4802101,,,,
The George & Dragon,2 Blackheath Hill,London,SE10 8DE,GB,51.472899,-0.0151598,https://georgedragon.com/,,+44 20 8691 3764,Th 18:00-26:00; Fr-Sa 18:00-28:00; Su 16:00-26:00
Queen's Head,,London,,GB,51.5943364,-0.3807397,,,,
The Druids Head,3 Market Place,Kingston upon Thames,KT1 1JT,GB,51.4093122,-0.3064476,https://www.greeneking.co.uk/pubs/surrey/druids-head,,,Mo-Th 11:00-23:00; Fr 11:00-01:00; Sa 10:00-01:00; Su 10:00-23:00
The Fox,,London,,GB,51.5042436,-0.3433342,,,,
The Grosvenor,127 Oaklands Road,London,W7 2DT,GB,51.5067265,-0.3276291,https://www.grosvenorpub.com/,,+442088400007,Mo-Sa 12:00-23:20; Su 12:00-22:50
The Green W7,13 Lower Boston Road,London,W7 3TX,GB,51.5071386,-0.3395948,https://www.thegreenw7.com/,,,Su-We 09:00-23:00; Th-Sa 11:00-00:00
The Alexandra,,London,,GB,51.4612829,-0.1382297,,,,
Belle Vue,1 Clapham Common South Side,London,SW4 7AA,GB,51.4618322,-0.1376414,,,,
The Abbeville,67-69 Abbeville Road,London,SW4 9JW,GB,51.454953,-0.1395127,,,,
Walkers of Whitehall,15 Craig's Court,London,SW1A 2DD,GB,51.5067276,-0.1269618,,,,
Halfway II Heaven,7 Duncannon Street,London,WC2N 4JF,GB,51.5084752,-0.1267238,https://www.halfway2heaven.net/london,Stonegate,+44 20 7484 0736,"Mo-Th 12:00-23:00; Fr, Sa 12:00-01:00; Su 12:00-20:00"
The Plough,57 Flamstead End Road,Cheshunt,EN8 0JB,GB,51.7121198,-0.0505227,,,,
The Smuggler's Inn,320 Chipstead Valley Road,Coulsdon,CR5 3BE,GB,51.3189353,-0.1505156,,,+44 1737 550 043,Mo-Su 08:00-23:00
The Horniman,Counter Street,London,SE1 2HD,GB,51.5061115,-0.0829214,,,,Mo-Su 11:00-23:00; Th-Sa 11:00-23:30
Sports Bar & Grill,174-180 Old Street,London,EC1V 9BP,GB,51.525197,-0.0900377,,,,
The Vine,86 Highgate Road,London,NW5 1PB,GB,51.5547125,-0.1444787,,,,
The Victoria,,London,,GB,51.4644128,-0.3277821,,,,
The Moby Dick,6 Russell Place,London,SE16 7PL,GB,51.4954636,-0.0395511,https://www.mobydickgreenlanddock.co.uk/,Fuller's,,
Traders,,London,,GB,51.4661242,-0.1421645,,,,
The Rose and Crown,2 The Polygon,London,SW4 0JG,GB,51.4637043,-0.14135,,,,
The Sun,47 Old Town,London,SW4 0JL,GB,51.4639712,-0.1409221,,,,
The Grafton,,London,,GB,51.465258,-0.1410423,,,,
The Calf,87 Rectory Grove,London,SW4 0DR,GB,51.4655827,-0.1410858,,,,
The Clapham Tap,128 Clapham Manor Street,London,SW4 6ED,GB,51.4642991,-0.1353883,https://the-clapham-tap.business.site/,,+44 20 7498 9633,Mo-Th 16:00-23:00; Fr 16:00-00:00; Sa 12:00-00:00; Su 12:00-23:00
The Railway Tavern,18 Clapham High Street,London,SW4 7UR,GB,51.4645547,-0.1311338,,,,
The Plough,297 Northfield Avenue,London,W5 4XB,GB,51.497219,-0.312545,https://www.ploughnorthfields.co.uk/,Fuller's,,"Su-Th 11:00-24:00; Fr,Sa 11:00-00:30"
Dockers Inn,97 Wapping Lane,London,E1W 2RW,GB,51.5048793,-0.0573725,https://dockersinn.co.uk/,,,"Mo-Th 12:00-23:00, Fr,Sa 12:00-01:30, Su 12:00-22:30"
The Chancery,90 Bromley Road,Beckenham,BR3 5NP,GB,51.4068967,-0.0174421,,,,
Jolly Woodman,9 Chancery Lane,Beckenham,BR3 6NR,GB,51.4067114,-0.0180915,,,,
Betty,,London,,GB,51.4917587,-0.2622862,,,,
The Goose,264 Hoe Street,London,E17 3AX,GB,51.5833767,-0.0191396,https://www.greatukpubs.co.uk/goose-walthamstow/contact,Stonegate,+44 20 8520 4751,Mo-Th 11:00-00:00; Fr 11:00-01:00; Sa 10:00-01:00; Su 10:00-23:00
The William Morris,807-809 Forest Road,London,E17 4JD,GB,51.5912043,-0.0077676,,,,
Prince Arthur,123 Uxbridge Road,London,W13 9AU,GB,51.5114253,-0.3150232,,,+44 20 8567 4446,
Star And Scorpion,94 Uxbridge Road,London,W13 8RA,GB,51.5115625,-0.3159141,,,,
The Greyhound,,London,,GB,51.5913275,-0.2279046,,,,
Claddagh Ring,,London,,GB,51.5901278,-0.226129,https://www.claddagh-ring.co.uk/,,+44 20 8203 2600,
The Hawbush,,London,,GB,51.5814345,0.1167026,,,,
The Pheasant,,London,,GB,51.4851696,-0.4404949,,,,
The Wheatsheaf,,London,,GB,51.4857689,-0.4350514,,,,
The Bedford,77 Bedford Hill,London,SW12 9HD,GB,51.4427243,-0.1493607,,,,
The Blue Ball,Deans Lane,Tadworth,KT20 7UE,GB,51.2835124,-0.241072,,,,
The Fox & Hounds,62 Walton Street,Walton On The Hill,KT20 7RU,GB,51.283139,-0.2460049,,,,
The Pilot,,London,,GB,51.4902978,-0.277684,https://www.pilot-chiswick.co.uk/,,,
The Duke of Sussex,75 South Parade,London,W4 5LF,GB,51.4962711,-0.2641399,https://www.thedukeofsussex.co.uk/,,+44 20 8742 8801,Mo-Th 12:00-23:00; Fr-Sa 12:00-24:00; Su 12:00-22:00
The William Garland,4 The Square,Caterham,CR3 6QA,GB,51.2824247,-0.0771832,https://www.greeneking.co.uk/pubs/surrey/william-garland,,,
Crown and Pepper,32 Godstone Road,Caterham,CR3 6RA,GB,51.2813043,-0.0754971,,,,
Ashley Park,Ashley Park Road,Walton-On-Thames,KT12 1JP,GB,51.3733737,-0.4153446,,,,
The George Inn,24 Bridge Street,Walton-On-Thames,KT12 1AH,GB,51.3870836,-0.4212786,https://www.georgeinnwalton.co.uk/,,+44 1932 223046,
The Bear,30 Bridge Street,Walton-On-Thames,KT12 1AH,GB,51.3870736,-0.4218566,,,,
The Barley Mow,,London,,GB,51.3684,-0.3968187,,,,
King William IV,392 Sipson Road,London,UB7 0HT,GB,51.4901149,-0.4578428,,,,
The Crown,High Street,West Drayton,UB7 0AJ,GB,51.4887565,-0.4779067,,,+44 20 8759 1007,Mo-Sa 12:00-23:00; Su 12:00-22:30
King's Head,2 Crouch End Hill,London,N8 8AA,GB,51.5782929,-0.1242398,https://www.thekingsheadcrouchend.co.uk/#/,,,Mo-We 12:00-23:00; Th-Fr 12:00-24:00; Sa 11:00-25:00; Su 12:00-22:00
McCaffertys Bar,134 High Street,Epsom,KT19 8BT,GB,51.3326883,-0.2706674,https://epsom.mccaffertysbars.com,,,
Acorn 30,,London,,GB,51.3320433,-0.2710528,,,,
The Rising Sun,14 Heathcote Road,London,KT18 5DX,GB,51.3307962,-0.263292,,,,
The Amato,Chalk Lane,Epsom,KT18 7AS,GB,51.3243531,-0.2683366,,,,
The George IV,31 Portugal Street,London,WC2A 2HF,GB,51.5147063,-0.1168421,,London School of Economics and Political Science (LSE),,12:00-24:00
The Bollo,,London,,GB,51.4955664,-0.2700726,,,,
The Rochester Castle,"143, 145 Stoke Newington High Street",London,N16 0NY,GB,51.5609825,-0.0740121,,,+44 20 7249 6016,Su-Th 08:00-24:00; Fr-Sa 08:00-25:00
Pied Bull,High Street,Dartford,DA4 0DG,GB,51.3793928,0.2231513,,,,
Malt Shovel,Station Road,London,DA4 0ER,GB,51.3672457,0.2106111,,,,
The King's Arms,,London,,GB,51.4878141,-0.310766,,,,
The Hart,,London,,GB,51.4933656,-0.2433411,,,,
The New Inn,,London,,GB,51.4892112,-0.3021118,,,,
The Brook,,London,,GB,51.4882823,-0.3046086,,,,
The Griffin,,London,,GB,51.4870591,-0.3029644,https://www.griffinbrentford.co.uk/,,,
The Grafton Arms,72 Grafton Way,London,W1T 5DU,GB,51.5231854,-0.138689,https://www.graftonarms.co.uk/,,,
The Bull & Bush,Washington Road,London,KT1 3JB,GB,51.4081708,-0.28964,,,,
Leather Bottle,277 Kingston Road,London,SW19 3NW,GB,51.411219,-0.2091116,https://www.greeneking.co.uk/pubs/greater-london/leather-bottle,,,Mo-Th 11:00-23:00; Fr-Sa 11:00-00:00; Su 12:00-23:00
Royal Horse Guardsman,,London,,GB,51.4863995,-0.3000448,,,,
Agenda,,London,,GB,51.5108908,-0.0811851,,,,
The Ship,11 Talbot Court,London,EC3V 0BP,GB,51.5110721,-0.0847581,https://www.nicholsonspubs.co.uk/restaurants/london/theshiptalbotcourtlondon,,,
Running Horse,,London,,GB,51.5131349,-0.1484154,,,,
The Windmill,6-8 Mill Street,London,,GB,51.5124213,-0.1422011,https://www.youngs.co.uk/,,,
The Greyhound,425 South Ordnance Road,London,EN3 6HR,GB,51.670387,-0.0181586,,,,
The Priory Arms,,London,,GB,51.4748429,-0.128315,,,,Mo-Fr 16:00-23:00; Sa 12:00-23:00; Su 12:00-22:30
Crown & Anchor,246 Brixton Road,London,SW9 6AQ,GB,51.4713507,-0.1128611,https://crownandanchorbrixton.co.uk,Conway Taverns,,Mo 16:30-23:00; Tu-Th 16:30-24:00; Fr 16:30-25:00; Sa 12:00 - 25:00; Su 12:00-23:00
Nolan's,33 Wilcox Road,London,SW8 2XA,GB,51.4795759,-0.1259483,,,,
The Cavendish Arms,128 Hartington Road,London,SW8 2HJ,GB,51.4764537,-0.1276913,https://thecavendisharmsstockwell.co.uk/,,,
Black Horse,,London,,GB,51.290548,0.3097121,,,,
The Gate,Station Road,Bricket Wood,AL2 3PW,GB,51.7069071,-0.3567751,https://www.thegatebricketwood.co.uk/,,+44 1923 678944,
Dunnings Bar,153 St Albans Road,Watford,WD24 5BB,GB,51.6674032,-0.3983134,,,,
The Castle,,London,,GB,51.4683976,-0.3245885,,,,
The Partridge,194 High Street,Bromley,BR1 1HE,GB,51.4056169,0.0139026,https://www.partridgebromley.co.uk/,Fuller's,,
The Artful Duke,196-198 High Street,Bromley,BR1 1HE,GB,51.4057141,0.0138747,http://www.tpsbar.co.uk/bromley,,,
The Auld Shillelagh,105 Stoke Newington Church Street,London,N16 0UD,GB,51.5620215,-0.079539,http://theauldshillelagh.co.uk/,,+44 20 7249 5951,Mo-We 12:00-24:00; Th-Sa 12:00-25:00; Su 12:00-24:00
Coach & Horses,178 Stoke Newington High Street,London,N16 7JL,GB,51.5617228,-0.0735286,,,,
The Roebuck,122 Chiswick High Road,London,W4 1PU,GB,51.4929603,-0.252613,https://www.brunningandprice.co.uk/roebuck/,,+44 20 3978 2162,Su-Th 12:00-23:00; Fr-Sa 12:00-24:00
O'Shea's Irish Bar,99 Turners Hill,London,,GB,51.7031604,-0.0346738,,,,
The Maltsters,,London,,GB,51.7031272,-0.0261587,,,,
The Old English Gentleman,,London,,GB,51.7073046,-0.0372413,,,,
The Slug and Lettuce,Water Lane,Richmond,TW9 1TJ,GB,51.4587744,-0.3077896,https://www.slugandlettuce.co.uk/richmond,Stonegate,,
The Dog House,293 Kennington Road,London,SE11 6BY,GB,51.4891613,-0.1108437,,,+44 20 3893 1239,
The Hope,49 Norwood High Street,London,SE27 9JS,GB,51.430843,-0.101908,,Youngs,,
Prince of Wales,51 St George's Road,London,,GB,51.4957145,-0.1038594,,,,
The Mansion House,,London,,GB,51.489311,-0.1052036,,,,
The Little Apple,,London,,GB,51.4899576,-0.1081407,,,,
The Tommyfield,185 Kennington Road,London,,GB,51.4886442,-0.1108233,,Shepherd Neame,,
Jono's Bar,,London,,GB,51.5101535,-0.2869312,,,,
The Lansdowne,,London,,GB,51.5414171,-0.1533533,,,,
The Hour Glass,,London,,GB,51.486375,-0.0843308,,,,
Dickens Inn,Marble Quay,London,E1W 1UH,GB,51.5067525,-0.0702178,https://www.dickensinn.co.uk/,,,Mo-Su 12:00-23:00
The King James,,London,,GB,51.7009912,-0.0340746,,,,
Turners,,London,,GB,51.7009394,-0.0346324,,,,
Coach and Horses,36 Crossbrook Street,London,,GB,51.6939763,-0.03441,,,,
Roman Urn,137 Crossbrook Street,London,,GB,51.6971239,-0.0347918,,,,
The Vine,,London,,GB,51.6899477,-0.0339584,,,,
The Wheatsheaf,,London,,GB,51.6919635,-0.0344514,,,,
Smokehouse,,London,,GB,51.4890151,-0.2701228,,,,
The Turk's Head,28 Winchester Road,Twickenham,TW1 1LF,GB,51.4564146,-0.3230387,,,,"Mo-Th 12:00-23:00; Fr,Sa 12:00-24:00; Su 12:00-21:00"
Hole In the Wall,5 Mepham Street,London,SE1 8SQ,GB,51.5041063,-0.1137203,,,,
The Banker,Cousin Lane,London,EC4R 3TE,GB,51.5093933,-0.0916244,https://www.banker-london.co.uk/,Fuller's,+44 20 7283 5206,"Mo 11:00-22:00; Tu-We, Fr 11:00-23:00; Th 11:00-17:00; Sa 12:00-20:00"
The Crown and Anchor,22 Neal Street,London,WC2H 9PS,GB,51.5139755,-0.1249853,,,+44 20 7836 5649,
The Station,The Broadway Stoneleigh,London,KT17 2JA,GB,51.363021,-0.2478212,https://www.greeneking.co.uk/pubs/surrey/station,,,
Robin Hood,52 West Street,Sutton,SM1 1SH,GB,51.3638084,-0.1967096,,,,
The Drill,,London,,GB,51.3728734,-0.2320993,,,,
The Richmond,55 Shepherds Bush Road,London,,GB,51.5002698,-0.221756,https://therichmondhammersmith.co.uk/,,,
The Landor Theatre,,London,,GB,51.4657075,-0.1260872,,,,
The Prince of Wales,,London,,GB,51.3606475,-0.2176109,,,,
The North End Tavern,,London,,GB,51.3764631,-0.237058,https://www.greatukpubs.co.uk/north-end-tavern-worcester-park,Stonegate,,
St Stephen's Tavern,10 Bridge Street,London,SW1A 2JR,GB,51.501146,-0.125595,https://www.ststephenstavern.co.uk/,,,
The Bells,,London,,GB,51.4360054,-0.5181658,,,,
The Village Inn,,London,,GB,51.5767796,-0.3709372,,,,
Sir John Gibson,,London,,GB,51.4512858,-0.4752273,,,,
Jolly Bricklayers,,London,,GB,51.709642,-0.0488593,,,,
Three Horseshoes,1166 High Road,London,N20 0RA,GB,51.627374,-0.1746584,,,,
London Stone,14 Church Street,Staines-upon-Thames,TW18 4EP,GB,51.4339203,-0.5142035,https://www.londonstonepub.com/,,+44 1784 613546,
The Fountain & Ink,52 Stamford Street,London,SE1 9LX,GB,51.5071635,-0.1075107,,,,
The Lamb,,London,,GB,51.4971559,-0.375732,,,,
The Optimist Tavern,,London,,GB,51.5487756,0.2338479,,,,
The Shelverdine Goathouse,7-8 High Street,London,SE25 6EP,GB,51.3985503,-0.0761693,https://shelverdinegoathouse.com/,,+44 20 8916 1001,"Mo-We 16:00-23:00; Th 16:00-00:00; Fr,Sa 12:00-00:00; Su 12:00-23:00"
The Claret & Ale,5 Bingham Corner,Croydon,CR0 7AA,GB,51.379938,-0.0736716,,,,
012 Bar & Grill Restaurant,108-110 The Grove,London,E15 1NS,GB,51.542752,0.0032106,,,,"Su-Th 11:00-00:00; Fr,Sa 11:00-01:00"
The Sportsman,78-102 Broadway,London,E15 1NG,GB,51.5424567,0.0028343,https://www.greatukpubs.co.uk/sportsman-stratford,Stonegate,,"Su-Th 09:00-23:30; Fr,Sa 09:00-01:00"
Anchor Brewhouse,Shad Thames,London,SE1 2LN,GB,51.5041075,-0.0753099,,,,
The Ship Aground,33 Wolseley Street,London,SE1 2BP,GB,51.5005923,-0.0705079,,,,
Crown & Anchor,100 High Street,Old Woking,GU22 9LN,GB,51.3020936,-0.5449516,,,,
The Bell,,London,,GB,51.7197868,-0.4103518,,,,
The Blacksmiths Arms,257 Rotherhithe Street,London,SE16 5EJ,GB,51.5051439,-0.0339857,https://www.blacksmithsarmsrotherhithe.co.uk/,Fuller's,,
The Estcourt Tavern,25 Estcourt Road,Watford,WD17 2PY,GB,51.6586655,-0.3955164,https://www.greeneking.co.uk/pubs/hertfordshire/estcourt-tavern,,+44 1923 225733,Mo-Th 12:00-23:00; Fr-Sa 12:00-23:30; Su 12:00-10:30
Cask,6 Charlwood Street,London,SW1V 2EE,GB,51.491093,-0.1373223,https://www.caskpubandkitchen.com/,,,Mo-Sa 12:00-23:00; Su 12:00-22:30
Pride of Pimlico,85 Tachbrook Street,London,SW1V 2QA,GB,51.4898941,-0.1353645,https://www.craftunionpubs.com/pride-of-pimlico,Stonegate,,Mo-Su 11:00-23:00
The Adam & Eve,77A Wells Street,London,W1T 3QQ,GB,51.5165073,-0.1373884,https://www.theadamandevew1.co.uk/,,+44 20 7636 0717,
Toolan's,866 High Road,London,N12 9RH,GB,51.6185904,-0.1764629,,,,
Queen Of The South Pub,367 Norwood Road,London,SE27 9BQ,GB,51.4399206,-0.1060377,,,,
The Falcon,33 Bedford Road,London,SW4 7SQ,GB,51.4642947,-0.1291283,,,,
The Brunel,47 Swan Road,London,SE16 4JN,GB,51.5013181,-0.0509211,,,,"Mo-Th 12:00-00:00, Fr-Sa 12:00-01:30, Su 12:00-00:00"
Hope & Anchor,123 Acre Lane,London,SW2 5UA,GB,51.4595646,-0.1266272,https://www.hopeandanchorbrixton.co.uk/,,,Mo-Th 12:00-23:00; Fr-Sa 12:00-01:00; Su 12:00-22:00
Asylum Tavern,40-42 Asylum Road,London,SE15 2RL,GB,51.4772459,-0.0586344,,,,
The Hand in Hand,61 New Park Road,London,SW2 4EN,GB,51.4476771,-0.1268273,https://www.craftunionpubs.com/hand-in-hand-brixton,Stonegate,,
Doyles Tavern,379 Caledonian Road,London,N7 9DQ,GB,51.5437242,-0.1177134,,,,
The Old Bank,,London,,GB,51.3598578,-0.1913538,https://www.greatukpubs.co.uk/old-bank-sutton,Stonegate,,
O'Neills,37 High Street,Sutton,SM1 1DJ,GB,51.361022,-0.1922077,,,,
Forge,24 Cornhill,London,EC3V 3ND,GB,51.5132004,-0.0871776,https://www.forgedinlondon.com/london,Stonegate,,
The Castle,44 Commercial Road,London,E1 1LN,GB,51.5148862,-0.0687963,http://www.thecastlelondon.com/,,,"Su-Tu 16:00-24:00, We 16:00-01:00, Th 16:00-01:30, Fr,Sa 16:00-03:00"
The Moretown Belle,5 Thomas More Square,London,E1W 1YW,GB,51.5071618,-0.0674954,https://www.moretownbelle.co.uk/,,+44 20 7702 0900,
Thomas Neale,39 Watney Market,London,E1 2PP,GB,51.5131287,-0.0566157,,,,
Brixton Jamm,261 Brixton Road,London,SW9 6LH,GB,51.4706805,-0.112081,https://brixtonjamm.org/,,,
The Golden Goose,,London,,GB,51.4781203,-0.1034297,,,,
The Windmill,Windmill Drive,London,SW4 9DE,GB,51.4575038,-0.1441572,https://www.windmillclapham.co.uk/,Youngs,+44 20 8673 4578,
Tollington,,London,,GB,51.5575468,-0.1128611,,,,
O'Neill's,73-77 Euston Road,London,NW1 2QS,GB,51.5288373,-0.1262199,,,,"Mo-We 08:00-24:00, Th-Sa 08:00-01:00, Su 09:00-24:00"
Clerkenwell Social,2-5 St John's Square,London,EC1M 4DE,GB,51.5221729,-0.1032382,,,,
New Cross Inn,323 New Cross Road,London,SE14 6AS,GB,51.4757953,-0.0370911,,,,Mo-Th 18:00-27:00; Fr-Sa 18:00-28:00; Su 18:00-26:00
The Flower of Kent,135 Lewisham Way,London,SE14 6QP,GB,51.4722877,-0.0311244,,,+44 20 8694 4936,
Royal Standard,86 Tanners Hill,London,SE8 4PN,GB,51.4736103,-0.0272264,,,,
The Brookmill Pub,65 Cranbrook Road,London,SE8 4EJ,GB,51.4708059,-0.0218807,,,,
Royal Albert,460 New Cross Road,London,SE14 6TJ,GB,51.4751561,-0.0286653,https://royalalbertpub.co.uk/,,+44 20 8692 3737,"Mo-Fr 16:00-23:00; Sa,Su 12:00-23:00"
The Cadogan Arms,298 Old Church Street,London,,GB,51.4859699,-0.1729707,,,,
The Pig's Ear,Old Church Street,London,SW3 5BS,GB,51.4842633,-0.1722964,https://www.pigsearpub.com/,,,Tu-Sa 12:00-23:00; Mo 17:00-23:00; Su 12:00-22:00
The Lucas Arms,245a Gray's Inn Road,London,WC1X 8QY,GB,51.5284133,-0.1195557,https://www.greeneking.co.uk/pubs/greater-london/lucas-arms,Greene King,,
The Fellowship Inn,Randlesdown Road,London,SE6 3BT,GB,51.4327487,-0.0198466,,,,
The George,40 Tower Bridge Road,London,SE1 4TR,GB,51.4953472,-0.0835069,https://www.craftunionpubs.com/george-southwark,Stonegate,,"Mo-Th 11:00-23:30; Fr,Sa 11:00-24:00; Su 12:00-23:00"
The Devonshire,39 Balham High Road,London,SW12 9AN,GB,51.4469022,-0.1490137,,,,
Milford Arms,574 London Road,Isleworth,TW7 4EY,GB,51.4738772,-0.3450357,,,,
The Jovial Sailor,Portsmouth Road,Ripley,GU23 6EZ,GB,51.2893093,-0.5020265,https://www.baronspubs.com/jovialsailor/find/,,,
The Hartley,,London,,GB,51.4958251,-0.0828758,,,,
Huntsman and Hounds,,London,,GB,51.4899499,-0.08567,,,,
Munich Cricket Club,1 Abbey Orchard Street,London,SW1P 2LU,GB,51.4981992,-0.1324675,,,,
The Northcote,2 Northcote Road,London,SW11 1NT,GB,51.4607139,-0.1671587,http://www.geronimo-inns.co.uk/thenorthcote/,,,
The Goat,66B Battersea Rise,London,SW11 1EQ,GB,51.4609207,-0.1664373,,,,
The Wellington,81 - 83 Waterloo Road,London,SE1 8UD,GB,51.5036385,-0.111312,https://www.wellingtonhotelwaterloo.co.uk/,,,
St James Tavern,72 St James's Road,London,SE16 4QZ,GB,51.4954065,-0.065873,,,,
The Aeronaut,264 High Street,London,W3 9BH,GB,51.508471,-0.275381,https://www.aeronaut.pub/,,,
Duke of York,,London,,GB,51.5096305,-0.2718999,,,,
The Windmill,50 High Street,London,W3 6LG,GB,51.5067866,-0.2663317,,,,
The King's Head,214 High Street,London,W3 9NX,GB,51.5078444,-0.2730275,https://www.thekingsheadhotellondon.co.uk/,,,"Su-Th 07:30-23:30; Fr,Sa 07:30-24:00"
Hoop and Grapes,47 Aldgate High Street,London,EC3N 1AL,GB,51.5142543,-0.0742015,https://www.nicholsonspubs.co.uk/restaurants/london/thehoopandgrapesaldgatelondon,,+44 20 7481 4583,Su-Fr 12:00-23:30; Sa 11:00-18:00
The Macbeth,70 Hoxton Street,London,N1 6LP,GB,51.5301253,-0.0800851,,,,
The Rocket,11-13 Churchfield Road,London,W3 6BD,GB,51.5087219,-0.2639648,,,,
The Sheepwalk Tavern,Market Place,London,W3 6QS,GB,51.5078484,-0.2712627,,,,
The Stag,177 Acton Lane,London,W4 5DA,GB,51.4992672,-0.2644126,,,,
Rose and Crown,,London,,GB,51.4330224,-0.1543083,,,,
The Pied Bull,498 Streatham High Road,London,SW16 3QB,GB,51.4194298,-0.1282304,https://www.thebullstreatham.co.uk/,Youngs,,
Two Brewers,121 Whitecross Street,London,EC1Y 8JH,GB,51.5224839,-0.0928541,,,,
Two Brewers,114 Clapham High Street,London,SW4 7UJ,GB,51.4630642,-0.1348176,https://www.the2brewers.com/london,Stonegate,,"17:00-02:00; Th 17:00-03:00; Fr,Sa 17:00-04:00"
Pitcher and Piano,28 Cornhill,London,EC3V 3ND,GB,51.5132258,-0.0867502,,,,
The Kings Arms,2 Shepherd Market,London,,GB,51.5062952,-0.146163,https://www.greeneking-pubs.co.uk/pubs/greater-london/kings-arms-mayfair,,+44 20 7629 0416,
Elm Park Tavern,,London,,GB,51.4492346,-0.1176409,,,,
Tommy Tucker,,London,,GB,51.4788399,-0.1927249,,,,
The Belgravia,,London,,GB,51.4924915,-0.1514301,,,,
Elephant and Castle,18 Elephant And Castle,London,SE18 6JY,GB,51.4908177,0.0689386,,,,
North Mitcham Association Club,49 Woodland Way,Mitcham,CR4 2DZ,GB,51.4172055,-0.1533658,,,,
Crown and Sceptre,2A Streatham Hill,London,SW2 4AA,GB,51.4451138,-0.1247972,,,,
Slug and Lettuce,10 Park Lane,Croydon,CR0 1JA,GB,51.3738073,-0.097071,https://www.slugandlettuce.co.uk/croydon,Stonegate,,
The Alma Tavern,129 Lower Addiscombe Road,Croydon,CR0 6PU,GB,51.3793468,-0.0807355,,,,
The Cyclist,Balham High Road,London,SW12 9BP,GB,51.4437389,-0.1528177,https://www.urbanpubsandbars.com/venues/the-cyclist,,+44 20 8066 2070,Su-Tu 12:00-23:00; We-Fr 12:00-00:00; Sa 10:00-13:00
Princess Royal,,London,,GB,51.3830398,-0.1103416,,,,
The Botanist,35 Broadgate Circle,London,EC2M 2QS,GB,51.5189552,-0.0836417,,,,
Ye Olde Clocktower,35 Whitehorse Road,Croydon,CR0 2JG,GB,51.3845329,-0.0978953,,,,
The Whitecross Tap,142-146 Whitecross Street,London,EC1Y 8QJ,GB,51.5241672,-0.0934981,https://www.crafted-social.co.uk/whitecross-tap-old-street,Stonegate,,
The Market Tavern,1-4 Surrey Street,Croydon,CR0 1RG,GB,51.3718392,-0.1008195,https://www.greatukpubs.co.uk/market-tavern-croydon,Stonegate,,
White Horse,94 Brixton Hill,London,SW2 1QN,GB,51.4547784,-0.1199229,https://www.whitehorsebrixton.com/,,,
Hemingford Arms,158 Hemingford Road,London,N1 1DF,GB,51.5430239,-0.1130904,https://www.hemingfordarms.com/,,+44 20 7607 3303,Mo-Sa 11:00-23:00; Su 12:00-22:30
The Prince George,151 St Albans Road,Watford,WD24 5BB,GB,51.6672494,-0.3984152,,,,
The George,,London,,GB,51.5524009,-0.1673616,https://www.greeneking.co.uk/pubs/greater-london/george,,,
The Bird Cage,58 Stamford Hill,London,N16 6XS,GB,51.5663124,-0.0726537,https://www.crafted-social.co.uk/birdcage-stoke-newington,Stonegate,,
Raynes Park Tavern,32 Coombe Lane,London,SW20 0LA,GB,51.4096476,-0.2301826,https://www.greeneking-pubs.co.uk/pubs/greater-london/raynes-park-tavern/,Greene King,,Mo-Th 11:30-00:00; Fr-Sa 11:30-01:00; Su 11:30-23:00
The Hydrant,1 Monument Street,London,EC3R 8BG,GB,51.5102919,-0.0861975,https://www.thehydrant.co.uk/,Fuller's,+44 20 7623 5446,Mo-Fr 08:00-23:00; Sa 10:00-23:00; Su 10:00-18:00
The Grove,39 Oldridge Road,London,SW12 8PN,GB,51.4483422,-0.1510468,,,,
Ye Olde Whyte Lyon,Farnborough Common,Orpington,BR6 8NE,GB,51.3658935,0.0541673,,,,
The Black Heart,2-3 Greenland Place,London,NW1 0AP,GB,51.5389171,-0.1418712,https://www.ourblackheart.com/,,,Mo-We 15:00-00:00; Th 15:00-01:00; Fr 12:00-02:00; Sa 11:00-02:00; Su 12:00-12:00
The Red Lion,407 Walworth Road,London,SE17 2AW,GB,51.4845509,-0.0935392,,,,
The Rockingham Arms,119 Newington Causeway,London,SE1 6DQ,GB,51.4958695,-0.0996325,https://www.jdwetherspoon.com/pubs/the-rockingham-arms-elephant-and-castle/,,+44 20 7940 0890,"Su-Th 08:00-23:00; Fr,Sa 08:00-24:00"
Brave New World,22-26 Berrylands Road,Surbiton,KT5 8RA,GB,51.393066,-0.2956153,,,,Mo-We 12:00-23:00; Th-Sa 12:00-24:00; Su 12:00-22:30
Escape Sports Bar & Restaurant,2 Lidlington Place,London,NW1 2JU,GB,51.5327738,-0.1373878,https://www.escapemornington.co.uk/,,,Mo-Sa 12:00-23:00; Su 12:00-22:00
Rose and Crown,1 Church Place,London,W5 4HN,GB,51.5040481,-0.3059067,https://www.roseandcrownealing.co.uk/,,,
The Black Cap,171 Camden High Street,London,NW1 7JY,GB,51.5384321,-0.1424429,,,,
The Dean Swift,2-6 Deancross Street,London,E1 2QA,GB,51.5139175,-0.05521,,,,
Purkins,174 Streatham Road,Mitcham,CR4 2AF,GB,51.4167786,-0.1525765,,,,
Square Tavern,26 Tolmers Square,London,,GB,51.5259074,-0.1378517,,Young's,,
The Doric Arch,Eversholt Street,London,NW1 2HS,GB,51.527798,-0.131988,https://www.doric-arch.co.uk/,Fuller's,,Mo-Su 09:00-18:00
Eastnor Castle,,London,,GB,51.5333448,-0.1342188,,,,
The Masque Haunt,168-172 Old Street,London,EC1V 9BP,GB,51.5251618,-0.0905437,https://www.jdwetherspoon.com/pubs/all-pubs/england/london/the-masque-haunt-old-street,JD Weatherspoon,,
Tattersalls Tavern,,London,,GB,51.5011085,-0.1625201,https://www.greeneking-pubs.co.uk/pubs/greater-london/tattersalls-tavern/,,,
The Victoria,1 Lower Belgrave Street,London,SW1W 0NR,GB,51.4956292,-0.1460347,https://www.greeneking.co.uk/pubs/greater-london/victoria,Taylor Walker,,Mo-Fr 11:00-23:00
Bbar,43 Buckingham Palace Road,London,SW1W 0PP,GB,51.4981242,-0.1434293,https://www.bbarlondon.com/,,,
The Fire Station,150 Waterloo Road,London,SE1 8SB,GB,51.5025485,-0.1105758,https://www.firestationwaterloo.co.uk/,,+44 20 3727 5938,Mo-Th 09:00-23:00; Fr-Sa 09:00-24:00; Su 09:00-22:30
The New Moon,88 Gracechurch Street,London,EC3V 0DN,GB,51.5128537,-0.0842485,,,,
Duke of Somerset,15 Little Somerset Street,London,E1 8AH,GB,51.513604,-0.0737842,https://www.crafted-social.co.uk/duke-of-somerset-aldgate-london,Stonegate,,
The Lamb,85 Pelly Road,London,E13 0NL,GB,51.5353993,0.0215447,,,,
Balls Brothers,1 Minster Pavement,London,EC3R 7PP,GB,51.5108903,-0.0808223,https://ballsbrothersminstercourt.co.uk/,,+44 20 7283 2838,
The Oliver Conquest,70 Leman Street,London,E1 8EU,GB,51.5128687,-0.0701002,,,,
Shaker and Company,,London,,GB,51.5283514,-0.1389467,,,,
The World's End,174 Camden High Street,London,NW1 0NE,GB,51.5391316,-0.1422001,,,,
Lord Wargrave,40-42 Brendon Street,London,,GB,51.5181298,-0.1657799,https://www.lordwargrave.com/,,+44 20 7723 0559,Mo-Sa 10:00-23:30; Su 10:00-23:00
Duke of York,45 Harrowby Street,London,,GB,51.5175308,-0.1640235,,,,
Skinners Arms,114 Judd Street,London,WC1H 9NT,GB,51.5281822,-0.1251425,https://skinnersarmslondon.com/,,+442078376521,
The Boot,116 Cromer Street,London,WC1H 8BS,GB,51.527567,-0.1241966,,,,Mo-Sa 12:00-23:00; Su 12:00-22:30
The Castle,38 Tooting High Street,London,SW17 0RG,GB,51.4285893,-0.1677325,,Young & Co,,
The Castle,,London,,GB,51.6091055,0.0207591,,,,
The Oval Tavern,131 Oval Road,Croydon,CR0 6BR,GB,51.3782981,-0.087598,,,,
The Builders Arms,65 Leslie Park Road,Croydon,CR0 6TP,GB,51.3794773,-0.085901,https://www.buildersarmscroydon.co.uk/,,,
The Porter and Sorter,Billinton Hill,Croydon,CR0 6BT,GB,51.3760103,-0.0918905,,,,
The Royal Standard,1 Sheldon Street,Croydon,CR0 1SS,GB,51.3699505,-0.1016237,https://www.royalstandardcroydon.co.uk/,,+44 20 8686 4288,
King's Head,115 Upper Street,London,N1 1QN,GB,51.5383261,-0.1025991,https://kingsheadtheatre.com/,,,
The Bull,100 Upper Street,London,N1 0NP,GB,51.537413,-0.1031553,,,,
The King's Head,,London,,GB,51.5375887,-0.1004346,,,,
The Cutty Sark,4-6 Ballast Quay,London,SE10 9PD,GB,51.4863743,-0.0004177,https://www.cuttysarkse10.co.uk/,Young's,+44 20 8858 3146,Mo-Sa 11:00-23:00; Su 12:00-22:30
The Victory,,London,,GB,51.5292754,-0.1439959,,,,
Coach and Horses,Burnhill Road,Beckenham,BR3 3LA,GB,51.4062053,-0.0279755,,,,
The Dick Whittington,,London,,GB,51.6205627,-0.3879655,,,,
The Princess of Shoreditch,76-78 Paul Street,London,EC2A 4NE,GB,51.5253696,-0.08372,https://www.theprincessofshoreditch.com/,,,
The Grosvenor,79 Grosvenor Road,London,SW1V 3LA,GB,51.4866135,-0.1315923,,,,
The Bull,4-5 Devonshire Row,London,EC2M 4RH,GB,51.516962,-0.0803573,,,,
The Red Lion & Pineapple,281 High Street,London,W3 9BP,GB,51.5081822,-0.2764777,https://www.jdwetherspoon.com/pubs/the-red-lion-pineapple-acton/,,,
George & Dragon,183 High Street,London,W3 9DJ,GB,51.5072726,-0.2718046,https://georgeanddragonacton.co.uk/,,,Mo-Th 17:00-23:00; Fr 15:00-24:00; Sa 12:00-24:00; Su 12:00-22:00
The Foxglove,209 – 211 Liverpool Road,London,N1 1LX,GB,51.5391958,-0.106895,https://www.thefoxglove.co.uk/,,+442076097129,Mo-Tu 16:00-22:00; We 16:00-23:00; Th-Sa 12:00-23:00; Su 12:00-21:00
The Windsor,888 Old Kent Road,London,SE15 1NQ,GB,51.4783235,-0.0539226,,,,
The Retro Bar,2 George Court,London,WC2N 6HH,GB,51.5091024,-0.1235665,https://www.retrobarlondon.co.uk/london,Stonegate,,"Mo-Th 16:00-23:00; Fr,Sa 14:00-23:00; Su 14:00-22:30"
The Fishermans Arms,,London,,GB,51.529606,-0.249311,,,,Mo-Sa 11:00-23:00; Su 12:00-22:30
Grand Junction Arms,,London,,GB,51.53439,-0.260462,,Young's,,
Angie's,127 High Street Harlesden,London,NW10 4TR,GB,51.5354797,-0.2436931,,,,
Wishing Well,,London,,GB,51.5401392,-0.2535523,,,,
Heather Park,,London,,GB,51.5427082,-0.2850591,,,,
The Green Man,,London,,GB,51.5574542,-0.2895953,http://www.thegreenmanhotelatwembley.co.uk/,,,
The Cock Inn,,London,,GB,51.654469,-0.154481,https://www.thecockinncockfosters.co.uk/,,,"Mo-Th 11:00-23:00; Fr,Sa 11:00-24:00; Su 11:00-22:30"
The Fusilier,,London,,GB,51.5516164,-0.3109523,,,,
The Innisfree Free House,,London,,GB,51.5459657,-0.2731942,,,,
The Jolly Sisters,,London,,GB,51.5457466,-0.112832,,,,
The Lamb,54 Holloway Road,London,N7 8JL,GB,51.5487172,-0.1069806,,,,
House of Hammerton,97-99 Holloway Road,London,N7 8LT,GB,51.5479977,-0.1065621,https://hammertonbrewery.co.uk/site/about/,Hammerton Brewery,,Mo-Th 16:00-23:30; Fr 16:00-00:00; Sa 14:00-00:00; Su 14:00-22:00
The Duchess of Kent,Liverpool Road,London,N7 8PR,GB,51.5463365,-0.1087488,,,,
Black Horse,,London,,GB,51.3353006,0.3048187,,,,
Springfield Tavern,,London,,GB,51.6055519,-0.1227375,,,,
The Rising Sun,Cotmans Ash Lane,London,TN15 6XD,GB,51.3174134,0.241502,,,,
The White Swan,14 New Row,London,WC2N 4LF,GB,51.5111062,-0.1255283,https://www.nicholsonspubs.co.uk/restaurants/london/thewhiteswanlondon,,,
Phoenix,26 Throgmorton Street,London,EC2N 2AN,GB,51.5149462,-0.0855573,,,,
Prince Edward,,London,,GB,51.5554282,-0.1218795,,,,
The Stage Door,30 Webber Street,London,SE1 8QA,GB,51.5012622,-0.1073934,,,,Mo-Su 12:00-23:30
The Windmill,86 The Cut,London,SE1 8LW,GB,51.5029506,-0.1081212,https://www.windmillwaterloo.co.uk/,,,
The Royal Sovereign,64 Northwold Road,London,E5 8RL,GB,51.5626442,-0.0631966,,,,
Queen Adelaide,272 Kingston Road,London,KT19 0SH,GB,51.3640598,-0.2577208,,,,
Kings Arms,260/2 London Road,Mitcham,CR4 3HD,GB,51.4063069,-0.1641771,https://www.youngs.co.uk/pub-detail.asp?PubID=293,Young & Co,,
White Lion of Mortimer,223 London Road,Mitcham,CR4 2JD,GB,51.4065317,-0.1638081,,,,
The Bell,Bell Lane,London,KT22 9ND,GB,51.2911387,-0.3548777,,,,
The Red Lion,23 Crown Passage,London,SW1A 1EA,GB,51.5056546,-0.1376692,,,,
The Flask,,London,,GB,51.5566015,-0.1772469,,,,
Windsor Castle,3 Lanark Place,London,,GB,51.5254495,-0.1788998,,,,
Dean's Bar,,London,,GB,51.5209322,-0.1231994,,,,
The Prince of Wales,150-151 Drury Lane,London,WC2B 5TD,GB,51.5145794,-0.121732,https://www.greeneking.co.uk/pubs/greater-london/prince-of-wales,,,
The Albany,240-242 Great Portland Street,London,W1W 5QU,GB,51.523319,-0.143984,,,,
The Colton Arms,,London,,GB,51.4865599,-0.210879,,,,
The Seven Stars,,London,,GB,51.4870402,-0.2031196,,,,
Newmarket Ale House / Canecão,17 York Way,London,N7 9QG,GB,51.543225,-0.1260664,https://www.newmarkethotel.co.uk/,,,
The Black Dog,112 Vauxhall Walk,London,SE11 5ER,GB,51.4886893,-0.1209019,https://theblackdogvauxhall.co.uk/,,,Mo-Sa 12:00-23:30; Su 12:00-21:30
The Cricketers,Downside Common,Cobham,KT11 3NX,GB,51.3119537,-0.4108014,,,,
The Carpenter's Arms,,London,,GB,51.4925603,-0.2426718,,,,
The Cross Keys,,London,,GB,51.4918251,-0.2426222,https://www.crosskeyshammersmith.co.uk/,,,
The Jolly Coopers,84 Wheelers Lane,London,KT18 7SD,GB,51.3311789,-0.2817364,https://jollycoopers.co.uk/,,,
The Famous Green Man,71 High Street,London,KT17 1RX,GB,51.3475594,-0.2497387,,,,
Waters Edge,Reservoir Road,Ruislip,HA4 7TY,GB,51.5910706,-0.4327766,https://www.stonehouserestaurants.co.uk/nationalsearch/london/thewatersedgeruislip,,,Mo-Th 09:00-23:00; Fr-Su 08:00-23:00
Bricklayers Arms,39-41 Chevening Road,London,TN13 2RZ,GB,51.285343,0.1487956,https://www.the-bricklayers-arms.co.uk/,,,
The Cherry Tree,32 Station Road,London,SE25 5AG,GB,51.3973143,-0.0753947,,,,
The Boot,The Green,Rickmansworth,WD3 6BL,GB,51.6850364,-0.4936249,,,,
The Cricketers,The Green,Rickmansworth,WD3 6AS,GB,51.6822,-0.4918482,,,,
The Paternoster,2-4 Queens Head Passage,London,EC4M 7DZ,GB,51.5150683,-0.0983225,,,,
George and Dragon,39 High Street,London,TN13 2RW,GB,51.2846295,0.1535143,https://www.georgeanddragonchipstead.com/,,,
Harrow,Harrow Road,London,TN14 7JT,GB,51.3161445,0.1281919,,,,
The Star,Leatherhead Road,London,KT22 0DP,GB,51.3268564,-0.327641,,,,
Kent House Tavern,,London,,GB,51.4164144,-0.045372,,,,
Three Horseshoes,,London,,GB,51.3156883,0.1241811,,,,
Bullfinch,London Road,London,TN13 2DR,GB,51.2873464,0.1679082,,,+44 1732 455107,Mo-We 12:00-21:00; Th-Sa 12:00-22:00; Su 12:00-19:00
The Beehive,,London,,GB,51.4861851,-0.098272,,,,
The Old Crown,81 Station Road,Hayes,UB3 4BG,GB,51.504778,-0.4192942,https://www.craftunionpubs.com/old-crown-hayes,Stonegate,,
The Lincoln,,London,,GB,51.6467723,-0.0653782,,,,Mo-Th 13:00-23:00; Fr-Sa 12:00-01:00; Su 12:00-22:00
The Bishop,2 Bishop's Hall,Kingston upon Thames,KT1 1PY,GB,51.4103079,-0.308042,,,,
Royal Oak,68 High Street,Caterham,CR3 5UB,GB,51.2850725,-0.088188,,,,
Blacksmith Arms,39 High Street,Caterham,CR3 5UE,GB,51.2862707,-0.0883496,,,,
The King & Queen,34 High Street,Caterham,CR3 5UA,GB,51.2860887,-0.0885576,https://www.kingandqueencaterham.co.uk/,,,"Fr,Sa 12:00-24:00, Su-Th 12:00-11:00"
The Gryphon Pub,9 Vera Avenue,London,N21 1RE,GB,51.642833,-0.0986945,https://www.emberinns.co.uk/nationalsearch/london/thegryphonenfield/,,,
Willow,,London,,GB,51.6382801,-0.1108079,,,,
Fishmonger's Arms,3 Winchmore Hill Road,London,N14 6AD,GB,51.6337369,-0.1247827,,,+44 20 8886 8080,
The Crown,116 Cloudesley Road,London,N1 0EB,GB,51.5373158,-0.1095229,https://www.crownislington.co.uk/,,+44 20 7837 7107,Mo-Sa 12:00-23:00; Su 12:00-22:30
The Regent,201-203 Liverpool Road,London,N1 1LX,GB,51.5389818,-0.1069786,https://theregentpub.com/,,,Mo-We 15:00-23:00; Th 12:00-23:00; Fr-Sa 12:00-00:00; Su 12:00-22:30
The Green Gate,492 West Green Road,London,N15 3DA,GB,51.5878447,-0.0992823,,,,
The Rose and Crown,High Street,Kings Langley,WD4 9HT,GB,51.7110361,-0.4493308,,,,
The Botwell Inn,25–29 Coldharbour Lane,Hayes,UB3 3EB,GB,51.5082215,-0.4166865,,,,
The Overdraft Tavern,,London,,GB,51.5394029,0.051311,,,,
Euston Flyer,83-87 Euston Road,London,NW1 2RA,GB,51.5286655,-0.1267001,https://www.eustonflyer.co.uk/,,,Mo 10:00-23:00; Tu-Th 10:00-23:30; Fr 10:00-24:00; Sa 08:00-00:00; Su 09:00-23:00
The Bear,,London,,GB,51.4750095,-0.095975,,,,closed
The Old Dispensary,,London,,GB,51.4743058,-0.0935548,,,,
Two Brewers,,London,,GB,51.5462316,-0.1155259,,,,
The Miller's Well,419-423 Barking Road,London,E6 2JX,GB,51.5334728,0.0563692,,,,
The Argyle,1 Greville Street,London,EC1N 8PQ,GB,51.5190993,-0.1088628,,,,"Mo-Fr 11:30-23:00, Sa 12:00-20:00"
Sir Christopher Hatton,4 Leather Lane,London,EC1N 7RA,GB,51.5181575,-0.1088985,https://www.nicholsonspubs.co.uk/restaurants/london/thesirchristopherhattonhattongardenlondon,,+44 20 7404 9436,"Mo-Th 10:00-23:30, Fr,Sa 10:00-00:30, Su 10:00-22:30"
Horse and Wig,14 Fulwood Place,London,WC1V 6HZ,GB,51.5190282,-0.1135508,https://www.horseandwig.com/,,,
The Compton Arms,,London,,GB,51.5436556,-0.1020128,https://www.comptonarms.co.uk/,,,
Emporer Banqueting Suite,,London,,GB,51.586911,-0.097422,,,,
Duke of Cambridge,,London,,GB,51.3940304,-0.0932017,,,,
Craft Beer Co.,168 High Holborn,London,WC1V 7AA,GB,51.515637,-0.125979,http://thecraftbeerco.com/pubs/coventgarden/,,,Su-We 12:00-00:00;Th-Sa 12:00-01:00
The Rose Battersea,74-76 Battersea Bridge Road,London,SW11 3AG,GB,51.4782512,-0.1701422,,,,
Bedford Tavern,160 Seven Sisters Road,London,N7 7PT,GB,51.5614137,-0.1121827,http://www.thebedfordtavern.com/,,,
Highbury Barn Tavern,,London,,GB,51.55382,-0.0980505,,,,
The Drayton Park Public House,66 Drayton Park,London,N5 1ND,GB,51.5534482,-0.1046613,,,+44 20 7359 3915,
Rockwell,2 Spring Gardens,London,SW1A 2TS,GB,51.5073963,-0.1291207,,,,
Nº 1 Bar,,London,,GB,51.5060052,-0.08685,,,,
Running Horses,,London,,GB,51.482015,0.1796656,,,,
The Walrus,172 Westminster Bridge Road,London,SE1 7RW,GB,51.4999904,-0.1143845,https://www.thewalrusbarandhostel.co.uk,,,
The Moon Under Water,28 Leicester Square,London,WC2H 7LE,GB,51.5102692,-0.1293371,https://www.jdwetherspoon.com/pubs/all-pubs/england/london/the-moon-under-water-west-end,,+44 20 7839 2837,
Waxy's Little Sister,20 Wardour Street,London,W1D 6QG,GB,51.5111295,-0.1318044,,,,
Rupert Street,50 Rupert Street,London,W1D 6DR,GB,51.5121343,-0.1334375,https://www.rupert-street.com/london,Stonegate,+44 20 7494 3059,"Mo-Th 12:00-23:00; Fr,Sa 12:00-23:45; Su 12:00-22:30"
White Horse,,London,,GB,51.51186,-0.133452,,,,
The Leather Exchange,15 Leathermarket Street,London,,GB,51.5003106,-0.0842325,https://www.theleatherexchange.co.uk/,Fuller's,+44 20 7407 0295,
The Abbey Arms,384 Barking Road,London,E13 8HL,GB,51.5222325,0.0225555,,,,
The Famous Cock,259 Upper Street,London,,GB,51.5460069,-0.1035265,https://www.crafted-social.co.uk/famous-cock-tavern-islington,Stonegate,,"Mo-We 17:00-24:00, Th 17:00-01:00, Fr,Sa 17:00-03:00; Su off"
The Two Brewers,30 High Street,London,TN14 7TD,GB,51.3348234,0.1778332,,,,
The Horatia,98-100 Holloway Road,London,N7 8JE,GB,51.5499802,-0.1084358,https://www.thehoratia.co.uk/,,,
White mustache,7a Stanhope Parade,London,NW1 3RD,GB,51.5303666,-0.1411399,,,,
The Sporting Pages,6 Camera Place,London,,GB,51.4845997,-0.1794648,https://thesportingpage.co.uk/,,+44 20 7349 0455,
The Imperial Arms,,London,,GB,51.4786216,-0.1883136,,,,
Wolfpack,17 Vanston Place,London,SW6 1AY,GB,51.4813478,-0.1981412,,,,
The Atlas,16 Seagrave Road,London,,GB,51.4861841,-0.1962858,,,,
The Old Tea Warehouse,4-8 Creechurch Lane,London,EC3A 5AY,GB,51.5135527,-0.0788734,,,,
Hamilton Hall,Liverpool Street,London,EC2M 7PY,GB,51.5174006,-0.0809601,,,,Mo-Sa 07:00-23:30; Su 09:00-22:30
The Queens Head,144 Richmond Road,Kingston upon Thames,KT2 5HA,GB,51.4185611,-0.3013806,https://www.queensheadkingston.co.uk/,,,
Zigfrid,11 Hoxton Square,London,N1 6NU,GB,51.5280278,-0.0816764,https://zigfridvonunderbelly.com/,,+44 20 7613 1988,Mo-We 16:00-01:00; Th 12:00-01:00; Fr-Sa 12:00-15:00; Su 12:00-00:00
The Sterling Bar & Kitchen,30 St. Mary Axe,London,EC3A 8BF,GB,51.51452,-0.0800751,https://www.thesterlingbar.co.uk/,,+44 20 7929 3641,
Letchford Arms,,London,,GB,51.6052933,-0.3588023,,,,
McCafferty's Bar,128 Tottenham Lane,London,N8 7EL,GB,51.5838486,-0.1165681,https://crouchend.mccaffertysbars.com/,,+44 2083 413 182,Mo-Th 11:00-23:00; Fr-Sa 11:00-25:00; Su 11:00-23:00
The Priory,169 Priory Road,London,N8 8NB,GB,51.5872491,-0.1325891,https://www.thepriorypubn8.com,,,"Mo-Su 11:00-24:00; Fr,Sa 11:00-23:00"
The Five Bells,Church Road,London,TN15 0AU,GB,51.2892502,0.2209333,,,,
The Beer House,Terminus Place,London,SW1V 1JT,GB,51.495503,-0.143319,,,,
Shoreditch House,Ebor Street,London,E1 6AW,GB,51.5237708,-0.0759056,,,,
Bohemia Bar,1 Great Eastern Street,London,EC2A 3EJ,GB,51.5227715,-0.0780898,,,,
the Shoreditch Arms,127 Shoreditch High Street,London,E1 6JE,GB,51.5268568,-0.0781882,,,,"Mo,Tu 16:00-23:00, We,Th 12:00-24:00, Fr,Sa 12:00-01:00, Su 12:00-23:00"
The Gander,,London,,GB,51.3715155,-0.208954,https://www.greatukpubs.co.uk/gander-inn-sutton,Stonegate,,
Dickens Tavern,25 London Street,London,W2 1HH,GB,51.5157797,-0.1745199,https://www.greeneking.co.uk/pubs/greater-london/dickens-tavern,,,
Duke of Cambridge,30 St. Peter's Street,London,N1 8JT,GB,51.5345894,-0.0986938,https://dukeorganic.co.uk/,,+44 20 7359 3066,Tu-Sa 12:00-23:00; Su 1200-1800
The Durrell Arms,,London,,GB,51.4742491,-0.2072711,,,,
Pensbury Arms,,London,,GB,51.4712492,-0.1380284,,,,
The King's Head,84 High Street,London,EN5 5SN,GB,51.6534067,-0.2007979,https://www.mcmullens.co.uk/king-s-head,,,
The Yorkshire Grey,2 Theobald's Road,London,WC1X 8PN,GB,51.5215753,-0.1136199,https://www.yorkshiregrey.com/,Samuel Smith's,,Mo-Th 12:00-23:00; Fr 12:00-24:00; Sa 12:00-18:00
The Duke (of York),,London,WC1N 2PB,GB,51.5228039,-0.1165486,,,,
Calthorpe Arms,252 Gray's Inn Road,London,,GB,51.5248119,-0.1161427,,Young's,,
Green Man,57 Berwick Street,London,W1F 8SR,GB,51.5155449,-0.1366581,https://www.nicholsonspubs.co.uk/restaurants/london/thegreenman,,+44 20 7494 9731,Mo-We 11:00-23:30; Th-Sa 10:00-01:00; Su 10:00-22:30
The Wooden Cross,153 Crouch Hill,London,N8 8DH,GB,51.5780068,-0.1237718,https://www.the-wooden-cross.com,,,Mo-Th 12:00-23:30; Fr-Sa 12:00-24:30; Su 12:00-23:30
The Willow Walk,25 Wilton Road,London,SW1V 1LW,GB,51.495038,-0.142477,,,+44 20 7828 2953,
Bradley's Spanish Bar,42-44 Hanway Street,London,,GB,51.5165329,-0.1326779,https://www.bradleysspanishbar.com/,,+44 20 7636 0359,Mo-Sa 12:00-22:00; Su 12:00-18:00
The Grove Tavern,9 Grove Road,Surbiton,KT6 4BX,GB,51.3965778,-0.3063333,,,,
The Antelope,87 Maple Road,Surbiton,KT6 4AW,GB,51.3951523,-0.3077357,,,,
Gordon Bennett (closed),75 Maple Road,Surbiton,KT6 4AG,GB,51.394756,-0.3081181,,,+44 20 8390 7222,
Prince Albert,,London,,GB,51.455451,0.1528343,,,,
Kelsey House Bar & Kitchen,75 High Street,Beckenham,BR3 1AN,GB,51.4075424,-0.0260506,,,,
Camino,,London,,GB,51.5312173,-0.1216741,,,,
Brewers Arms,,London,,GB,51.4720716,0.1601117,,,,
Maya Pub,3 Shaftesbury Avenue,Harrow,HA2 0AJ,GB,51.5721097,-0.3545269,,,,
O’Neill’s,196 Clapham High Street,London,SW4 7UD,GB,51.462091,-0.1379819,https://oneills.co.uk,,+44 20 7498 4931,"Mo-Th,Su 12:00-23:00; Fr-Sa 12:00-01:00"
Well House Inn,,London,,GB,51.2825986,-0.1969586,,,,
The Wibbas Down Inn,6-12 Gladstone Road,London,SW19 1QT,GB,51.4190546,-0.2022217,https://www.jdwetherspoon.com/pubs/all-pubs/england/london/the-wibbas-down-inn-wimbledon,,,Su-Th 08:00-00:00; Fr-Sa 08:00-01:00
O'Neills,66 The Broadway,London,SW19 1RQ,GB,51.4197677,-0.2026026,https://www.oneills.co.uk/national-search/london/wimbledon,,,Su-Th 09:00-00:00; Fr-Sa 09:00-02:00
The Garratt & Gauge,20 Hartfield Road,London,SW19 3TA,GB,51.4197508,-0.2054971,https://www.crafted-social.co.uk/garratt-and-gauge-wimbledon,Stonegate,,Mo-Tu 10:00-23:00; We-Su 10:00-00:00
The Raven,375 Goldhawk Road,London,,GB,51.4950799,-0.2445682,,,,
The White Hart,,London,,GB,51.4809887,0.1813908,,,,
Pocket Watch,434 Uxbridge Road,London,W12 0NS,GB,51.5065799,-0.2386957,https://www.pocket434.co.uk/,,+44 20 8749 0313,"Mo-Th 10:00-23:00; Fr-Sa 10:00-24:00; Su 10:00-23:00 || Mo-Fr 12:00-22:00 open ""Kitchen"" || Sa 10:00-22:00; Su 10:00-21:00 open ""Kitchen"""
Big Red,385 Holloway Road,London,N7 0RY,GB,51.5573872,-0.1191956,,,,
Halfway House,165 Lower Road,London,DA17 6DQ,GB,51.490328,0.162122,,,,
Angie's III,,London,,GB,51.5480318,-0.2235729,,,,
The Leather Bottle,,London,,GB,51.4889555,0.1428164,,,,
The Haydon Arms,,London,,GB,51.6424863,-0.3779581,,,,
Lucky 7,,London,,GB,51.5572254,-0.2148383,,,,
McGovern's,Cricklewood Broadway,London,,GB,51.5559388,-0.2145933,,,,
The Corner Pin,,London,,GB,51.4714497,0.1932779,,,,
The Windmill,Cricklewood Broadway,London,,GB,51.5535658,-0.2120334,,,,
The Beaten Docket,Cricklewood Broadway,London,,GB,51.5536653,-0.2115593,https://www.jdwetherspoon.com/pubs/all-pubs/england/london/the-beaten-docket-cricklewood,,,
White Bear,Church Street,Rickmansworth,WD3 1JQ,GB,51.634092,-0.4671166,,,,
The Castlebar,84 Uxbridge Road,London,W13 8RA,GB,51.5116701,-0.3154088,,,,
The Rusty Bucket,11 Court Yard,London,SE9 5PR,GB,51.450381,0.0521384,,,,Mo-Th 16:00-23:00; Fr 16:00-23:00; Sa 12:00-23:00; Su 16:00-22:00
The Duke's Head,53 Crayford High Street,Crayford,DA1 4EJ,GB,51.4530415,0.1766114,,,,
The Copper Tap,190-192 Peckham High Street,London,SE15 5EG,GB,51.473719,-0.0641206,,,,
The Bear and Ragged Staff,2 London Road,Crayford,DA1 4BH,GB,51.4518527,0.1779385,https://www.greeneking.co.uk/pubs/kent/bear-and-ragged-staff,,,
The Bell,,London,,GB,51.5621378,-0.4133708,,,,
The Old City Arms,,London,,GB,51.4893442,-0.2290789,https://www.greatukpubs.co.uk/old-city-arms-hammersmith,Stonegate,,
The Hammersmith Ram,,London,,GB,51.4924346,-0.2283606,,,,
The Oak,206 Widmore Road,Bromley,BR1 2RH,GB,51.4057763,0.0343248,,,,
The Crown of Bromley,14 Masons Hill,London,,GB,51.3979054,0.0204984,https://www.crownofbromley.co.uk,,+44 20 8466 0370,Mo off; Tu-Th 12:00-22:30; Fr-Sa 12:00-23:30; Su 12:00-22:00
The Sydney Arms,,London,,GB,51.4149186,0.0881226,,,,
Barrel & Horn,204 High Street,Bromley,BR1 1PW,GB,51.4058978,0.013694,https://www.barrelandhorn.com/,Fuller's,,
Metropolis,256 High Street,Bromley,BR1 1PG,GB,51.4069343,0.0118379,,,,
Star & Garter,227 High Street,Bromley,BR1 1NZ,GB,51.4067816,0.0125496,,,,
The Railway Tavern,45 East Street,Bromley,BR1 1QQ,GB,51.4077635,0.0164973,https://railwaytavernbromley.com/,,+44 20 8460 7957,Mo-Th 16:00-23:00; Fr-Sa 12:00-24:00; Su 12:00-22:30
O'Neills,27-29 East Street,Bromley,BR1 1QE,GB,51.4070401,0.0159088,,,,
The Ram,34 High Street,Kingston upon Thames,KT1 1HL,GB,51.4081202,-0.3076987,https://www.theramkingston.com/,,,"Mo-Th,Su 12:00-23:00; Fr-Sa 12:00-24:00"
King Charles I,55-57 Northdown Street,London,N1 9BL,GB,51.5324518,-0.1197093,https://kingcharles1st.co.uk/,,+44 20 7837 7758,Mo-Th 12:00-23:00; Fr 12:00-00:00; Sa 12:00-23:00; Su 12:00-22:00
The Shepherd and Flock,84 Goldhawk Road,London,,GB,51.5021889,-0.228507,,,+44 20 8743 4046,
Chatterton Arms,41 Chatterton Road,Bromley,BR2 9QW,GB,51.3924612,0.0357109,https://www.craftunionpubs.com/chatterton-arms-pub-bromley,Stonegate,,
The Lounge,,London,,GB,51.4219574,0.0619025,,,,
Gordon Arms,,London,,GB,51.4197499,0.0691082,https://www.craftunionpubs.com/gordon-arms-chislehurst,Stonegate,,
The Bull's Head,,London,,GB,51.410984,0.076585,https://www.thebullsheadhotel.co.uk/,Youngs,,
The Great North Wood,3 Knights Hill,London,SE27 0HS,GB,51.4315293,-0.1039329,https://www.thegreatnorthwood.co.uk/,,+44 20 8766 0351,
The Water Rats,328 Gray's Inn Road,London,WC1X 8BZ,GB,51.5290018,-0.1195828,,,,"Su-Th 08:00-24:00, Fr-Sa 08:30-01:00"
The Cannon,17 High Street,West Molesey,KT8 2NA,GB,51.4024646,-0.370847,,,,
Duke of Cambridge,228 Battersea Bridge Road,London,SW11 3AA,GB,51.4729383,-0.1660967,,,,Mo-Sa 11:00-23:00; Su 11:00-22:30
Plume of Feathers,,London,,GB,51.485632,0.0996762,,,,
O'Dowds,,London,,GB,51.4885639,0.0893341,,,,
The Phoenix,23 Smith Street,London,,GB,51.4885827,-0.16266,https://www.thephoenixchelsea.co.uk/,,+44 20 7730 9182,
Amersham Arms,388 New Cross Road,London,SE14 6TY,GB,51.4757315,-0.0325764,https://www.theamershamarms.net/,,+44 20 8691 9506,Su-We 12:00-24:00; Th-Sa 12:00-27:00
Five Bells Public House,Church Road,Orpington,BR6 7RE,GB,51.357365,0.1276536,,,,
Nova Cafe,,London,,GB,51.518181,-0.2088068,,,,
The Knight of Notting Hill,139 Lancaster Road,London,W10 6HJ,GB,51.5169298,-0.20989,,,,"Su-Th 11:00-24:00, Fr,Sa 11:00-01:00"
Freelands Tavern,31 Freelands Road,Bromley,BR1 3HZ,GB,51.4102618,0.0244346,,Greene King,,
Red Lion,10 North Road,Bromley,BR1 3LG,GB,51.4100431,0.0216553,,Greene King,,
The White Horse,64 Palace Road,Bromley,BR1 3JX,GB,51.4097827,0.0210575,,,,
Ivyleaf,,London,,GB,51.4413705,0.2244757,,,,
The Sun,16 Swanscombe Street,Dartford,DA10 0BG,GB,51.4426378,0.3117353,,,,
Elephant Inn,283 Ballards Lane,London,N12 8NR,GB,51.6115111,-0.1792332,https://www.elephantinnfinchley.co.uk/,Fuller's,,Mo-Th 11:00-23:00; Fr-Sa 11:00-00:00; Su 12:00-22:30
Old Tigers Head,351 Lee High Road,London,SE12 8RU,GB,51.4568581,0.0113057,,,+44 20 4568 0111,Mo-Th 12:00-23:00; Fr-Sa 12:00-24:00; Su 12:00-22:00
Duke of Edinburgh,394 Lee High Road,London,SE12 8RW,GB,51.4567562,0.0093084,,,,
The Leicester Arms,44 Glasshouse Street,London,,GB,51.510566,-0.1376134,https://www.greeneking.co.uk/pubs/greater-london/leicester-arms,,,
Spread Eagle,8 Woodstock Street,London,,GB,51.5143279,-0.1474367,https://www.greeneking-pubs.co.uk/pubs/greater-london/spread-eagle/,Spirit Pub Company,+44 20 7629 4695,
The Gunmakers,,London,,GB,51.5224993,-0.1104184,,,,
Kings Arms,,London,,GB,51.3352487,0.0297436,,,,
Patrick's,5 High Street,Beckenham,BR3 1AZ,GB,51.4106029,-0.0247443,,,,
Cressy Arms,1 Hawley Road,Dartford,DA1 1NP,GB,51.4346017,0.2156993,,,,
Kings Head,126 Blackstock Road,London,N4 2DR,GB,51.5615953,-0.0998166,,,,Su-th 11:00-24:00; fr-sa 11:00-01:00
The Clarence,102 Stoke Newington Church Street,London,N16 0LA,GB,51.5622912,-0.0789926,,,,
Golden Fleece,,London,,GB,51.6176396,-0.0636349,,,,
The Bill Nicholson,,London,,GB,51.6056848,-0.0616534,,,,
P.J. O'Connor's,239 High Road,London,,GB,51.5982203,-0.1109739,,,,
Mannions Prince Arthur,158 Broad Lane,London,N15 4QJ,GB,51.5847587,-0.0642382,,,,
Barley Mow,82 Duke Street,London,,GB,51.5129113,-0.1509087,,,,
The Crown,,London,,GB,51.5111757,-0.1363142,https://www.nicholsonspubs.co.uk/restaurants/london/thecrownbrewerstreetlondon,,,
Hare and Hounds,,London,,GB,51.5687971,-0.0287631,,,,
The Hanover Arms,326 Kennington Park Road,London,SE11 4PP,GB,51.4813791,-0.1130873,,,,
Prince Frederick,31 Nichol Lane,Bromley,BR1 4DE,GB,51.4158675,0.0198747,https://www.greeneking.co.uk/pubs/kent/prince-frederick,Greene King,,
The Castle,34-35 Cowcross Street,London,EC1M 6DB,GB,51.5202193,-0.1041739,https://www.thecastlefarringdon.co.uk/,,,Mo-Su 10:00-23:00
The Phoenix,Alexandra Palace Way,London,N10 2QE,GB,51.5933146,-0.131956,https://www.alexandrapalace.com/food-drink/phoenix-bar-pizzeria/,,,Mo-Th 11:00-22:30; Fr-Sa 11:00-23:00; Su 11:00-22:30
The Talma,,London,,GB,51.4307728,-0.065099,,,,
Railway Telegraph,112 Stanstead Road,London,SE23 1BS,GB,51.4420406,-0.0475952,https://www.railwaytelegraph.co.uk/,Shepherd Neame,+44 20 8699 5504,Mo-Th 16:00-21:00; Fr-Su 13:00-21:00
The Fox & Hounds Pub,150 Kirkdale,London,SE26 4BB,GB,51.4309935,-0.0598895,https://thefoxandhoundspub.com/,,+44 20 8291 0482,Su-Th 12:00-23:00; Fr-Sa 12:00-00:00
The Mother Redcap,,London,,GB,51.5648097,-0.1329722,,,,
The Oak,98 Richmond Road,Kingston upon Thames,KT2 5EN,GB,51.4163692,-0.3012289,,,,
The Mitre,40 Holland Park Avenue,London,W11 3QY,GB,51.5079559,-0.2034601,https://www.themitrew11.co.uk/,,+44 20 7727 6332,Mo-Sa 12:00-22:00; Su 12:00-21:00
Shepherds Tavern,50 Hertford Street,London,,GB,51.5061405,-0.1477362,https://www.greeneking-pubs.co.uk/pubs/greater-london/shepherds-tavern/,,,
The Beehive,36 New North Road,London,N1 6TE,GB,51.5318451,-0.0863304,,,,
The Olive Branch,169 Park Lane,London,N17 0HJ,GB,51.602594,-0.0599533,,,,
The Argyll Arms,18 Argyll Street,London,,GB,51.5150632,-0.141263,https://www.nicholsonspubs.co.uk/restaurants/london/theargyllarmsoxfordcircuslondon,,,
The North Pole,189-190 New North Road,London,,GB,51.53747,-0.091168,http://thenorthpolepub.co.uk/,,,Tu-Fr 16:00+; Sa-Su 12:00+
City Of Quebec,,London,,GB,51.5139051,-0.1577933,https://www.greeneking.co.uk/pubs/greater-london/city-of-quebec,Greene King,,
The Albion,2-3 New Bridge Street,London,EC4V 6AA,GB,51.5139036,-0.1045738,http://www.thealbionlondon.co.uk/,Young & Co,,
The Sovereign of the Seas,109-111 Queensway,Orpington,BR5 1DG,GB,51.3893065,0.0720908,https://www.jdwetherspoon.com/pubs/the-sovereign-of-the-seas-petts-wood/,,,
Ye Olde George,146 High Street,Slough,SL3 0LX,GB,51.4836526,-0.522189,,,,
Punch Bowl,,London,,GB,51.4796653,-0.5138539,,,,
The Crown Inn,School Road,Chislehurst,BR7 5PQ,GB,51.4105323,0.0728728,,Shepherd Neame,,
The Saddlers Arms,Send Marsh Road,London,GU23 6JQ,GB,51.2900774,-0.5095569,,,,
The Royal Hotel,,London,,GB,51.4828236,0.2311482,,,,
The Antwerp Arms,168-170 Church Road,London,N17 8AS,GB,51.6018786,-0.0747509,https://www.antwerparms.co.uk/,,+44 20 8216 9289,Tu-Th 16:00-23:00; Fr 14:00-00:00; Sa 12:00-00:00; Su 12:00-22:30
The Williow Tree,,London,,GB,51.370384,-0.2497953,,,,Mo-Su 11:00-23:00
The Elbow Room,503-505 High Road,London,N17 6QA,GB,51.5934562,-0.0697926,https://www.craftunionpubs.com/elbow-room-tottenham,Stonegate,,
The Ship,499 High Road,London,N17 6QA,GB,51.5933152,-0.0698235,,,,
Fox @ Excel,2 Western Gateway,London,E16 1XL,GB,51.5088147,0.0255735,,,,
The Anglesey Arms,90 Palace Road,Bromley,BR1 3JX,GB,51.4087128,0.0208818,,Shepherd Neame,,
The Crown and Anchor,19 Park Road,Bromley,BR1 3HJ,GB,51.4077953,0.021055,,,,"Tu-Th,Su 12:00-23:00; Fr,Sa 12:00-23:30"
The Taps,,London,,GB,51.653092,-0.0803774,,,,
The Black Lion,293 High Street,Epping,CM16 4DA,GB,51.7007525,0.1134279,,,,
George & Dragon,206-208 High Street,Epping,CM16 4AQ,GB,51.6995894,0.1123461,https://www.georgeanddragonepping.co.uk/,,,
The Sheaf,21 Southwark Street,London,SE1 1TY,GB,51.5048141,-0.0911485,http://sheaf.london/,,,
Railway Tavern,129 Hale Lane,London,NW7 3SB,GB,51.6166359,-0.2594853,https://www.railwaymillhill.com,,,Mo-Th 11:30-23:00; Fr-Sa 11:30-25:00; Su 11:30-22:30
Shamrock's,,London,,GB,51.4994834,-0.5396452,,,,
The Builders Arms,,London,,GB,51.6507828,-0.1730982,,,,
The Railway Tavern,,London,,GB,51.650097,-0.17465,,Charles Wells,,
The Black Lion,,London,,GB,51.3761759,0.3040356,,,,
White Swan,,London,,GB,51.357184,0.294213,,,,
Rising Sun,,London,DA3 8NL,GB,51.366628,0.275959,,,,
Eastside,,London,,GB,51.4989739,-0.1720838,,,,
Duke of Kent,,London,,GB,51.525204,-0.3202214,https://www.dukeofkent.co.uk/,Fuller's,,
The Swan,2 High Street,Iver,SL0 9NG,GB,51.5201894,-0.5037862,,,,
The Turk's Head,,London,,GB,51.5320798,-0.455457,,,,
The New Moon,25-26 Kenton Road,Harrow,HA3 8DN,GB,51.5872693,-0.304253,https://www.jdwetherspoon.com/pubs/all-pubs/england/london/the-new-moon-harrow,,,"Mo-Th 10:00-00:00,Fr 10:00-01:00,Sa 09:00-01:00,Su 09:00-00:00"
The Fat Walrus,44 Lewisham Way,London,SE14 6NP,GB,51.4739677,-0.0341953,http://www.thefatwalrus.com/,,,We-Fr 16:00-23:00; Sa 12:00-23:00; Su 12:00-20:00
The Old Justice,Farncombe Street,London,,GB,51.5001947,-0.0642294,,,,
Royal George,133 Charing Cross Road,London,WC2H 0EA,GB,51.5151393,-0.130809,https://www.theroyalgeorgewc2.co.uk/,,+44 20 7734 8837,
Punch & Judy,40 The Market,London,WC2E 8RF,GB,51.5118249,-0.1230419,https://www.greeneking.co.uk/pubs/greater-london/punch-and-judy,,+44 20 7379 0923,Mo-Th 11:00-23:00; Fr-Sa 11:00-24:00; Su 12:00-22:30
The New Inn,62 St Marys Road,London,W5 5EX,GB,51.5050789,-0.3057201,,,,
Fox and Hounds,29 Passmore Street,London,SW1W 8HR,GB,51.4910922,-0.1549035,,,,
The Henry Addington,22-28 Mackenzie Walk,London,E14 4PH,GB,51.5043058,-0.0225667,https://www.nicholsonspubs.co.uk/restaurants/london/thehenryaddingtoncanarywharflondon,,+44 20 7719 1114,Mo-Sa 12:00-23:00; Su 12:00-18:00
The Admiralty,66 Trafalgar Square,London,WC2N 5DS,GB,51.5072749,-0.128886,https://www.admiraltytrafalgar.co.uk/,Fullers,,
The Hercules,2 Kennington Road,London,SE1 7BL,GB,51.4982379,-0.1124955,https://www.thehercules.co.uk/,Fullers,+44 1909 303688,Mo-Th 09:00-23:30; Fr-Sa 09:00-24:00; Su 09:00-23:00
Spit and Sawdust,21 Bartholomew Street,London,SE1 4AL,GB,51.4948102,-0.0887005,https://www.spitandsawdust.pub/,,,
The Monument,18 Fish Street Hill,London,EC3R 6DB,GB,51.5100863,-0.0862828,https://www.greeneking.co.uk/pubs/greater-london/monument,,+44 20 7929 5880,"Mo-We, Fr-Sa 11:00-23:00; Th 11:00-00:00; Su 12:00-19:00"
The Britannia,20 Monument Street,London,EC3R 8AJ,GB,51.5099446,-0.085924,https://www.crafted-social.co.uk/britannia-monument-london,Stonegate,+44 20 7623 8572,
Clinks Bar,,London,,GB,51.5053968,-0.0952802,,,,
The Ranelagh,,London,,GB,51.6087366,-0.1271943,,,,
The Boundary,Cowcross Street,London,EC1M 5UG,GB,51.5204548,-0.1033955,https://www.sportsbarandgrill.co.uk/farringdon,Stonegate,,
The Birchwood,Grovebury Road,London,SE2 9BB,GB,51.497791,0.1151296,,,,
South End Green Social,154-156 Fleet Road,London,,GB,51.554133,-0.164588,,,,
The Magdala,2a South Hill Park,London,NW3 2SB,GB,51.5555828,-0.1656213,,,,
The Aspen Tree,73 Gobions Avenue,London,RM5 3SP,GB,51.6003652,0.1772876,https://www.greeneking.co.uk/pubs/essex/aspen-tree,,,
The Alderman,,London,,GB,51.605323,0.2187224,,,,
The Morris Dancer,,London,,GB,51.5992056,0.2303524,,,,
The Victoria,Axe Street,Barking,IG11 7LZ,GB,51.535343,0.0796786,,,,
Charlotte Despard,,London,,GB,51.5683619,-0.1366167,,,,
Lord Nelson,,London,,GB,51.3799178,-0.2186212,https://www.greatukpubs.co.uk/lord-nelson-sutton,Stonegate,,
The Tankard,111 Kennington Road,London,SE11 6SF,GB,51.4953279,-0.1106915,,,,
The Ship,171 Kennington Road,London,SE11 6SF,GB,51.4931919,-0.1105588,https://frontierpubs.co.uk/pub/the-ship/,,,Mo-Th 15:00-23:00; Fr 15:00-00:00; Sa 11:30-00:00; Su 12:00-22:30
White Horse,,London,,GB,51.3889404,-0.0908287,,,,
Two Brewers,221 Gloucester Road,Croydon,CR0 2DW,GB,51.3884972,-0.0899479,,Shepherd Neame,,
The Gladstone,,London,,GB,51.4894265,-0.093757,,,,
The Bell,,London,,GB,51.488455,-0.093289,,,,
Good Intent,24-26 East Street,London,SE17 2DN,GB,51.487872,-0.094495,,,,
Railway Tavern,401 Southend Lane,London,SE26 5BH,GB,51.4279898,-0.0332121,,,,
Fox and Hounds,66-68 Latchmere Road,London,SW11 2JU,GB,51.4671126,-0.1628828,,,,"Mo-Th 17:00-23:00; Fr,Sa 12:00-23:00; Su 12:00-22:30"
Crofton Park Tavern,330-332 Brockley Road,London,SE4 2BT,GB,51.4559687,-0.03659,,Mosaic Pub & Dining,,
The Green Man,144a Essex Road,London,N1 8LX,GB,51.5395657,-0.09727,,,,
Wetherspoons,,London,,GB,51.495106,-0.1441475,,,,
Corbet Place,15 Hanbury Street,London,E1 6QR,GB,51.520691,-0.07375,,,,
The Riverfront pub,,London,,GB,51.5072244,-0.1157002,,,,
Alice House,283-285 West End Lane,London,NW6 1RD,GB,51.5509213,-0.1916885,,,+44 20 7431 8818,
Duke of Cornwall,,London,,GB,51.4905527,-0.2237557,,,,
Distillers,,London,,GB,51.4893138,-0.223209,https://www.distillershammersmith.co.uk/,,,
Old Suffolk Punch,,London,,GB,51.4887915,-0.2229529,,,,
The Old Palace Pub,83 Langley Hill,Kings Langley,WD4 9HQ,GB,51.7121047,-0.4580716,,,,
The Cock,Shoreham Lane,London,TN14 7DD,GB,51.3307042,0.1359497,,,,
Rose and Crown,Otford Lane,London,TN14 7EA,GB,51.3293434,0.1361749,,,,
The Manor Arms,150 East India Dock Road,London,E14 0BP,GB,51.5107112,-0.0191418,,,,
The Rising Sun,Twitton Lane,London,TN14 5JR,GB,51.313611,0.1677084,,,,
The Barrel Vault,"Unit 23 The Circle, Saint Pancras Station",London,N1C 4QP,GB,51.5327455,-0.1262925,https://www.jdwetherspoon.com/pubs/all-pubs/england/london/the-barrel-vault-st-pancras,,+44 20 7837 5151,"Mo-Th 07:00-00:00; Fr, Sa 07:00-01:00; Su 08:00-23:00"
The Dolphin Tavern,44,London,WC1R 4PF,GB,51.519968,-0.117691,,,+44 20 7831 6298,
The Tichenham Inn,11 Swakeleys Road,Uxbridge,UB10 8DF,GB,51.5644308,-0.4447813,https://www.jdwetherspoon.com/pubs/all-pubs/england/london/the-tichenham-inn-ickenham,,,
The Windmill,The Common,Kings Langley,WD4 9BU,GB,51.7015765,-0.4958206,,,,
Small Beer,22 Tottenham Lane,London,N8 8PT,GB,51.5802977,-0.1231212,https://www.smallbeern8.co.uk,,,Mo-We 16:00-01:00; Th-Fr 16:00-02:00; Sa 12:00-02:00; Su 12:00-01:00
Yucatan Bar,121 Stoke Newington Road,London,N16 8BT,GB,51.5559225,-0.0747603,,,,
The Pavillion,325 Kirkdale,London,SE26 4QB,GB,51.4267585,-0.0549107,https://info6435372.wixsite.com/pavilionpub-1,,,Mo-Th 11:00-23:00; Fr-Sa 11:00-01:00; Su 11:00-22:30
Sway,61-65 Great Queen Street,London,WC2B 5BZ,GB,51.515545,-0.120776,https://www.swaybar.co.uk/london,Stonegate,,
The Jolly Sailor,64 High Street,London,SE25 6EB,GB,51.3992942,-0.0745606,https://www.thejollysailorsouthnorwood.co.uk/index,,+44 20 3581 1865,Mo-We 14:00-23:00; Th 14:00-00:00; Fr 13:00-00:00; Sa 12:00-00:00; Su 12:00-23:00
The Albion,26 High Street,London,SE25 6HA,GB,51.3996517,-0.0745544,https://albionpublondon.com/,,+44 20 8653 0558,
Berneliu Uzeiga - Shepherds Inn,16 Mary Rose Mall,London,E6 5LX,GB,51.5143494,0.0571765,https://www.berneliaiuk.co.uk/languages-beckton,,,Mo-Su 12:00-22:00
The Saint,1 Bow Churchyard,London,EC4M 9DQ,GB,51.5135985,-0.0940496,https://www.thesaint-bow.co.uk/,Fullers,,
The Chamberlain,130-135 Minories,London,EC3N 1NU,GB,51.5121747,-0.0757376,https://www.thechamberlainhotel.co.uk/,Fuller's,,
Tom Cribb,36 Panton Street,London,SW1Y 4EA,GB,51.5095922,-0.1317508,,Shepherd Neame,+44 20 7839 3801,
The Office,15 Oldfields Circus,Northolt,UB5 4RR,GB,51.5521446,-0.350405,,,,
Abercorn Arms,Stanmore Hill,London,,GB,51.6210616,-0.3159056,,,,
The Alfred Herring,316-322 Green Lanes,London,N13 5TT,GB,51.6193797,-0.1068029,https://www.thealfredherring.co.uk/,,,
The Golden Lion,,London,,GB,51.5063153,-0.1374883,https://www.greeneking.co.uk/pubs/greater-london/golden-lion-st-james-s,,,
Davy's,Crown Passage,London,SW1Y 6QY,GB,51.5060459,-0.1380125,https://www.davy.co.uk/,,+44 20 7839 8831,Mo-Fr 12:00-22:00
The Red Lion,,London,,GB,51.5083234,-0.1364346,https://www.redlionmayfair.co.uk/,,,
Three Crowns,Babmaes Street,London,,GB,51.5086113,-0.1351466,https://www.greeneking.co.uk/pubs/greater-london/three-crowns,,,
The North Star,,London,,GB,51.5458914,-0.1782275,,,,
O'Donnell's Bar,399 Northolt Road,Harrow,HA2 8JE,GB,51.5604007,-0.3581432,,,,
Hawkins Forge,110 Battersea Rise,London,SW11 1EJ,GB,51.4606421,-0.1690263,,,,
The Rising Sun,120 Loampit Vale,London,SE13 7SN,GB,51.4655611,-0.0183026,,,,
The Kenley Hotel,62 Godstone Road,Kenley,CR8 5AA,GB,51.3257979,-0.1008116,,,,
The Swimmer At The Grafton Arms,13 Eburne Road,London,N7 6AR,GB,51.5595085,-0.1194561,https://theswimmer.co.uk/,,+442072814632,Mo-Fr 17:00-23:00; Sa 12:00-23:00; Su 12:00-22:30
The White Horse,205 - 213 High Street,Beckenham,BR3 1AH,GB,51.4066204,-0.0309214,https://www.whitehorsebeckenham.co.uk/#/,,+44 208 639 0001,
The Wheatsheaf,135 High Street,West Wickham,BR4 0LU,GB,51.3769321,-0.0210828,,,,
The Apple Tree,,London,,GB,51.3697407,-0.0307264,,,,
Brewmaster,37 Cranbourn Street,London,WC2H 7AD,GB,51.5113485,-0.1280628,https://www.greeneking.co.uk/pubs/greater-london/brewmaster,,,
Round Table,26-27 St Martin's Court,London,WC2N 4AL,GB,51.5109133,-0.1280618,https://www.greeneking.co.uk/pubs/greater-london/round-table,,,
Lamb Tavern,10-12 Leadenhall Market,London,EC3V 1LR,GB,51.5128384,-0.0832871,,,,
The Cannick Tapps,109 Cannon Street,London,EC4N 5AD,GB,51.5116546,-0.0897347,https://www.crafted-social.co.uk/cannick-tapps-london,Stonegate,+44 20 7626 8246,"Mo-We 11:00-00:00, 09:00-18:00; Th, Fr 11:00-01:00; Sa 11:00-22:00"
The Crayford Arms,37 Crayford High Street,Dartford,DA1 4HH,GB,51.4526941,0.1769785,,,,
The Ordnance Arms,29 Ordnance Hill,London,,GB,51.5358085,-0.1714893,,Samuel Smith's,,
The New Crown,80-84 Chase Side,London,N14 5PH,GB,51.6333482,-0.1305923,,,,
The Bell Inn,4 Bell Road,East Molesey,KT8 0SS,GB,51.3982037,-0.3541646,,,,
The Walrus & The Carpenter,45 Monument Street,London,EC3R 8BU,GB,51.5095114,-0.0842105,https://www.nicholsonspubs.co.uk/restaurants/london/thewalrusandthecarpentermonumentlondon,,,
General Havelock,,London,,GB,51.5598078,0.0765491,,,,
British Legion,,London,,GB,51.3830786,-0.3207803,,,,
The Three Fishes,35 Green Street,Sunbury-on-Thames,TW16 6RE,GB,51.4056891,-0.4135296,,,,
Ostrich,High Street,Slough,SL3 0JZ,GB,51.4834577,-0.5232038,,,,
Star and Garter,,London,,GB,51.4825307,-0.5207153,,,,
Cock and Woolpack,6 Finch Lane,London,EC3V 3NA,GB,51.5137032,-0.0858011,,,,
The Sun Inn,7 Church Road,London,SW13 9HE,GB,51.4734842,-0.2473424,,,,
Furlong,89 Colney Hatch Lane,London,N10 1LR,GB,51.5997639,-0.1476478,,,+44 20 8444 4176,
Whelan's,341 Oxgate Lane,London,NW2 7HS,GB,51.5667671,-0.233309,,,,
The Rocket,Brewhouse Lane,London,SW15 2JQ,GB,51.4655321,-0.2130828,,,,
The Bill Murray,39 Queen's Head Street,London,N1 8NQ,GB,51.5362508,-0.0988191,https://www.angelcomedy.co.uk/,,,
The Lord Southampton,,London,,GB,51.5497411,-0.156314,,,,
The Dolphin,47 Tonbridge Street,London,WC1H 9DW,GB,51.5288971,-0.124761,https://www.thedolphin-pub.com/,,+442079163191,
The Cavalier,,London,,GB,51.6297824,-0.1578989,,,,
Callaghan's,Coram Street,London,WC1N 1HT,GB,51.5240185,-0.1249796,,,,"Mo-Su,PH 00:00-23:59+"
The Britannia,5 Brewer's Lane,Richmond,TW9 1HH,GB,51.460913,-0.3050555,,,,
The Running Mare,45 Tilt Road,Cobham,KT11 3EZ,GB,51.3245577,-0.4014392,https://therunningmare.com/,,+44 1932 862007,"Mo-Su 11:00-23:00; Fr,Sa 11:00-24:00"
Duke of Wellington,12-14 Toynbee Street,London,E1 7NE,GB,51.517868,-0.07459,https://www.duke.london/,,,
The Crown,153 Dovehouse Street,London,,GB,51.4902108,-0.1733776,,,+44 20 7352 9505,"Mo-Fr 12:00-15:00,17:00-22:00; Sa 12:00-21:00; Su 12:00-19:00"
Wheelwrights Arms,60 Clarence Street,Kingston upon Thames,KT1 1NP,GB,51.4106074,-0.3016953,https://www.wheelieslive.co.uk/,,,
O'Neills,3 Eden Street,Kingston upon Thames,KT1 1BQ,GB,51.4092146,-0.3055864,,,,
Sir Robert Peel,108 Malden Road,London,NW5 4DA,GB,51.5490983,-0.1527848,,,,
Tony's,,London,,GB,51.54892,-0.2415688,,,,
Ward's Free House,38-40 Lowlands Road,Harrow,HA1 3AT,GB,51.5792367,-0.3396357,,,,
Marian Bar,,London,,GB,51.5309996,-0.195836,,,,
The Two Doves,Oakley Road,Keston,BR2 8HD,GB,51.3727502,0.0395392,,Youngs,,"Mo-Th 12:00-15:00,17:00-23:00; Fr 12:00-23:30; Sa 12:00-23:30; Su 12:00-22:00; PH closed"
The Riverside Vauxhall,5 St. George's Wharf,London,SW8 2LE,GB,51.4856332,-0.1270319,https://www.riversidelondon.co.uk/,Youngs,+44 20 7735 8129,Mo-Su 08:00-00:00
The George,,London,,GB,51.5826203,-0.3323063,,,,
The Moon on the Hill,373-375 Station Road,Harrow,HA1 2AW,GB,51.5793516,-0.3341323,https://www.jdwetherspoon.com/pubs/all-pubs/england/london/the-moon-on-the-hill-harrow,J Weatherspoon,,
The Queens Head,2 High Road,West Byfleet,KT14 7QG,GB,51.3398442,-0.4816322,https://www.queensheadbyfleet.co.uk/,,+44 1932 345433,
King's Arms,55 The Grove,London,W5 5DX,GB,51.5109852,-0.3021186,,,,"Mo-Fr 12:00-15:00,17:00-22:00; Sa 11:00-22:00; Su 12:00-21:00"
The Crocodile,,London,,GB,51.7027715,-0.0442702,,,,
Railway Bar & Grill,,London,,GB,51.6252492,0.0462191,,,,
The New Cross Turnpike,55 Bellegrove Road,Welling,DA16 3PB,GB,51.4629158,0.1039166,,,,
Rose and Crown,Farnborough Way,Orpington,BR6 6BT,GB,51.3503053,0.0882937,,,,
Earl of Chatham,15 Thomas Street,London,SE18 6HU,GB,51.4902348,0.0666216,https://www.craftunionpubs.com/earl-of-chatham-woolwich,Stonegate,,Su-Th 12:00-24:00; Fr-Sa 12:00-28:00
The Great Harry,,London,,GB,51.4899129,0.0667107,https://www.jdwetherspoon.com/pubs/all-pubs/england/london/the-great-harry-woolwich,,,
Coopers Arms,,London,,GB,51.493609,0.0631706,,,,
The Castle Tavern,179 Powis Street,London,SE18 6JL,GB,51.4928826,0.0614609,,,,
Tap Tavern,The Square,Richmond,TW9 1ED,GB,51.4615147,-0.302433,,,,
Five Bells,165-167 East End Road,London,N2 0LZ,GB,51.5908058,-0.1722957,https://www.greeneking-pubs.co.uk/pubs/greater-london/five-bells/,,,
The Wellington,,London,,GB,51.4823451,-0.2030471,,,,
De Burgh Arms,High Street,West Drayton,UB7 7DQ,GB,51.5101823,-0.4737045,,,,
The Lucky Rover,312 Hook Road,Chessington,KT9 1NY,GB,51.3680366,-0.3067387,,,,Mo-Sa 12:00-23:00; Su 12:00-22:00
King's Head,,London,,GB,51.6526134,-0.082537,,,,
The Old Shepherd,Chorleywood Bottom,Rickmansworth,WD3 5JH,GB,51.6508874,-0.5147466,,,,
Roddy's Bar,,London,,GB,51.4984745,-0.3061795,,,,
The Derby,336 Kennington Park Road,London,SE11 4PP,GB,51.4811678,-0.1132925,https://thederbyse11.co.uk,,,Su-Tu 12:00-23:30; We-Th 12:00-00:30; Fr-Sa 12:00-01:00
The Albert Tavern,Harrington Road,London,SE25 4LX,GB,51.3974221,-0.0664347,,,,
The Gardeners Arms,107 London Road,Mitcham,CR4 2JA,GB,51.4100782,-0.1617585,,,,
The Junction,36 Saint John's Hill,London,SW11 1SA,GB,51.463322,-0.169801,https://www.greeneking.co.uk/pubs/greater-london/junction,Taylor Walker,+44 20 7228 1708,
The Plough Inn,,London,,GB,51.4681008,-0.1447743,,,,
The Northcote Saviour,94 Northcote Road,London,SW11 6QW,GB,51.4574347,-0.1659716,https://northcotesaviour.com/,,,
Betjeman Arms,Unit 53,London,N1C 4QL,GB,51.5303041,-0.1247771,https://www.thebetjemanarms.co.uk/,Youngs,+44 20 3040 7158,Mo-Sa 08:00-22:00; Su 08:00-20:00
The Lodge Tavern,,London,,GB,51.513793,-0.2995294,,,,
The Sir Michael Balcon,46-47 The Mall,London,W5 3TJ,GB,51.5136177,-0.2988011,,,,
The Whispering Moon,25 Ross Parade,Wallington,SM6 8QF,GB,51.3600646,-0.1496904,https://www.jdwetherspoon.com/pubs/all-pubs/england/london/the-whispering-moon-wallington,,,
Broadway Bar and Grill,"474,476 Fulham Road",London,SW6 1BY,GB,51.4801804,-0.1956699,http://www.broadwaybandg.co.uk/,,,
Hyde Arms,,London,,GB,51.6226095,-0.0660681,,,,
Railway Tavern,19-20 Market Square,London,N9 0TZ,GB,51.6248503,-0.0575427,,,,
The Waterfront,Juniper Drive,London,SW18 1TS,GB,51.464527,-0.1856879,http://www.waterfrontlondon.co.uk/,Young & Co,,
The Sea Horse,64 Queen Victoria Street,London,EC4N 4SJ,GB,51.5121486,-0.0955817,https://www.greatukpubs.co.uk/sea-horse-fleet-street,,,
The Captain Cook,203-205 Dawes Road,London,SW6 7QY,GB,51.481119,-0.2097328,,,,
Keats at the Globe,,London,,GB,51.5178081,-0.0886538,,,,
Six Bells,,London,,GB,51.6611962,-0.0867588,,,,
The Stranded,430 Strand,London,WC2R 0QN,GB,51.5093567,-0.1243596,,,,Mo-We 15:00-22:00; Th-Sa 12:00-22:00
William The Conqueror,,London,,GB,51.6057708,0.2335988,,,,
Ye Olde Mitre Inne,,London,,GB,51.6530747,-0.199487,https://www.greeneking.co.uk/pubs/hertfordshire/ye-olde-mitre,,,
Clyde,,London,,GB,51.4824675,0.0668964,,,,
The Star Inn,158 Plumstead Common Road,London,SE18 2UL,GB,51.4808347,0.079028,,,,
"The Land Of Liberty, Peace & Plenty",Long Lane,Rickmansworth,WD3 5BS,GB,51.6440991,-0.523226,http://www.landoflibertypub.com/,,+44 1923 282226,
The Queen's Head,66 Acton Street,London,WC1X 9NB,GB,51.5284524,-0.1181488,https://www.queensheadlondon.com/,,+44 20 7713 5772,Tu-Sa 12:00-00:00; Su-Mo 12:00-23:00
Fifteen York Hill,15 York Hill,London,,GB,51.6512355,0.0578517,,,,
The Hollybush,140 High Road,Loughton,IG10 4BE,GB,51.6457247,0.05322,https://mcmullens.co.uk/hollybush,McMullen,+44 20 8508 1156,
The Walnut Tree,,London,,GB,51.5264519,-0.393206,,,,
Masons Arms,169 Battersea Park Road,London,SW8 4BT,GB,51.4768147,-0.1468975,https://www.masons-arms-battersea.co.uk/,,,
The Royal Standard,180 High Street Colliers Wood,London,SW19 2BN,GB,51.4183453,-0.178222,,,,
The Antelope,76 Mitcham Road,London,SW17 9NG,GB,51.4260884,-0.1659185,,,+44 20 8672 3888,Mo-Th 16:00-23:00; Fr 16:00-24:00; Sa 12:00-24:00; Su 12:00-22:30
The Leigham Arms,1-3 Wellfield Road,London,SW16 2BT,GB,51.4301215,-0.1271884,,,,
The White Lion,232-234 Streatham High Road,London,SW16 1BB,GB,51.4307931,-0.1296637,,,,
The Perky Nel,7-8 Cavendish Road,London,SW4 9DW,GB,51.4536596,-0.1464242,,,,Tu-Th 16:00-22:00; Fr 16:00-00:00; Sa 12:00-00:00; Su 12:00-22:30
The Woodman,222 Durnsford Road,London,SW19 8DR,GB,51.434765,-0.196272,https://www.thewoodman.co/,,,Mo-Fr 12:00-23:30; Sa 11:00-23:30; Su 12:00-23:00
The Ascott,144 Field End Road,Pinner,HA5 1RJ,GB,51.5789398,-0.3998946,https://www.greeneking.co.uk/pubs/middlesex/ascott,,+44 20 8868 1772,Su-Th 12:00-22:00; Fr-Sa 11:00-22:00
The Belmont,,London,,GB,51.6008185,-0.3196329,,,,
The Abbey Tap,10-14 Broadway,London,E15 4QS,GB,51.5402372,0.0002018,https://www.crafted-social.co.uk/abbey-tap-stratford,Stonegate,+44 20 3435 9910,Su-Th 10:00-23:00; Fr-Sa 10:00-01:00
The Beaufort,2 Heritage Avenue,London,NW9 5TW,GB,51.5965783,-0.2428256,http://www.beaufortpubdining.com,Young's,,
Stanhope Arms,97 Gloucester Road,London,,GB,51.4940964,-0.1821606,https://www.greeneking-pubs.co.uk/pubs/greater-london/stanhope-arms/,,+44 20 7373 4192,
The Chelsea Gate,358 Fulham Road,London,SW10 9UU,GB,51.4816598,-0.1875734,https://www.thechelseapensioner.co.uk/,,+44 20 7351 0422,Tu-Th 17:00-00:00; Fr 15:00-00:00; Sa 13:00-00:00; Su 13:00-21:00
The Fest,678-680 Fulham Road,London,SW6 5SA,GB,51.4750782,-0.2064016,https://www.octoberfestpub.com/,,,"Mo-Th,Su 12:00-23:00; Fr-Sa 12:00-24:00"
The Brown Cow,676 Fulham Road,London,SW6 5SA,GB,51.4751367,-0.2063716,https://www.thebrowncowpub.co.uk/,,,
The Bucher's Arms,148 High Street,London,EN5 5XP,GB,51.6555251,-0.2016884,,,,
Central Station,37 Wharfdale Road,London,N1 9SD,GB,51.5334362,-0.120925,https://www.centralstation.co.uk,,,Mo-Su 17:00-24:00+
The Wheatsheaf,34 Kingston Road,London,KT17 2AA,GB,51.3522409,-0.2507794,,,,
The Tower Arms,,London,,GB,51.5044533,-0.5018825,,,,
The Sun Tavern,441 Bethnal Green Road,London,E2 0AN,GB,51.5272941,-0.0584212,https://www.thesuntavern.co.uk/,,,
The Malt Shovel,69 Iver Lane,Uxbridge,UB8 2JE,GB,51.5297405,-0.4856068,https://www.vintageinn.co.uk/restaurants/london/themaltshoveliveruxbridge,,+44 1895 812797,Mo-Tu 12:00-22:00; We-Fr 12:00-23:00; Sa 09:00-23:00; Su 09:00-22:30
Waters Edge,Packet Boat Lane,Uxbridge,UB8 2JS,GB,51.5199653,-0.4830879,https://the-watersedge.co.uk/,,,Tu-Sa 12:00-23:00; Su 12:00-22:30
Three Crowns,,London,,GB,51.6368615,-0.346933,,,,
The Holland Tringham,107-109 Streatham High Road,London,SW16 1HJ,GB,51.4301098,-0.1298559,https://www.jdwetherspoon.com/pubs/all-pubs/england/london/the-holland-tringham-streatham,Weatherspoons,,
FiveSixEight,,London,,GB,51.5004131,-0.1779662,,,,"Th,Sa-Tu 12:00-22:30, We,Fr 12:00-24:00+"
Southern Cross,,London,,GB,51.6645574,-0.4042511,https://www.greeneking.co.uk/pubs/hertfordshire/southern-cross,,,
Le Wouri,48 Woolwich Church Street,London,SE18 5NN,GB,51.4921451,0.0484523,,Le Wouri Entertainment,,
New Inn,,London,,GB,51.6868368,0.0011534,,,,
Green Man,,London,,GB,51.6875277,0.0090014,,,,
Welsh Harp,,London,,GB,51.6870887,-0.0028618,,,,
The Bull,Ariel Way,London,W12 7GA,GB,51.50638,-0.2201483,,,,
Jamaica Wine House,St. Michaels Alley,London,EC3V 9DS,GB,51.5129704,-0.0856635,https://www.shepherdneame.co.uk/pubs/london/jamaica-wine-house,Shepherd Neame,,Mo-Fr 11:00-23:00
Simpson's Tavern,38 1/2 Ball Court,London,EC3V 9DR,GB,51.5130283,-0.0859508,https://www.simpsonstavern.co.uk/,,,Tu-Fr 08:30-15:30; Mo 11:30-15:30
George and Vulture,2-3 Castle Court,London,EC3V 9DL,GB,51.5129153,-0.0857705,,Samuel Smith Brewery,,
The Kings Head,,London,,GB,51.6346573,-0.1032999,,,,
Nicholas Nickleby,6 Ferme Park Road,London,N4 4ED,GB,51.5739989,-0.1123627,https://www.nicholasnickleby.co.uk/,Bohem Brewery,,Mo-Fr 16:00-23:00; Sa-Su 14:00-23:00
The Hop Poles,,London,,GB,51.4927467,-0.2257217,https://www.crafted-social.co.uk/hop-poles-hammersmith,Stonegate,,
Reynold's Bar,,London,,GB,51.4879025,-0.219236,,,,
The Old Ship,,London,,GB,51.2930166,0.0255645,,,,
The Halfway House Bar,,London,,GB,51.559266,-0.1165035,,,,
The Windsor,2 New London Street,London,EC3R 7NA,GB,51.5113698,-0.0794105,https://www.greatukpubs.co.uk/windsor-fenchurch-place,Stonegate,,Mo-Th 10:00-23:00; Fr 10:00-25:00; Sa 11:00-20:00
"Hung, Drawn and Quartered",26-27 Great Tower Street,London,EC3R 5AQ,GB,51.5095282,-0.0807865,https://www.hung-drawn-and-quartered.co.uk/,,+44 20 7626 6123,Mo-Sa 12:00-23:00; Su 12:00-18:00
The Change of Horses,87 High Street,Orpington,BR6 7BB,GB,51.359557,0.0698702,,,,
The Buff,Pinewood Drive,Orpington,BR6 9NL,GB,51.3599916,0.0877533,https://www.greeneking.co.uk/pubs/greater-london/buff,,,
The Moon Under Water,44 High Street,Watford,WD17 2BS,GB,51.6564401,-0.3978379,https://www.jdwetherspoon.com/pubs/all-pubs/england/hertfordshire/the-moon-under-water-watford,Weatherspoons,,
The Tabernacle,,London,,GB,51.51677,-0.201699,,,,
The Shamrock,,London,,GB,51.6516662,-0.42206,https://m.facebook.com/The-Spirit-Store-669020139853074/?locale2=en_GB,,,11:00-23:00
The Lord Nelson,,London,,GB,51.6524761,-0.2100384,,,,
The Fountain,125-127 West Green Road,London,N15 5DE,GB,51.5850325,-0.0794707,,,+44 20 8802 0433,
Arnos Arms,338 Bowes Road,London,N11 1AN,GB,51.6161752,-0.1320087,,,,
The Black Horse,,London,,GB,51.653131,-0.206677,,,,
The Plough,89 St. John's Hill,London,SW11 1SY,GB,51.4615658,-0.1733056,https://www.theploughstjohnshill.co.uk/,,,
Ye Olde Monken Holt,193 High Street,London,EN5 5SU,GB,51.6581377,-0.2013105,,,,
Prince of Wales,98 Morden Road,London,SW19 3BP,GB,51.4107626,-0.1927304,,Young & Co,,
The Rebel Inn,78A-78B Streatham High Road,London,SW16 1BS,GB,51.4354235,-0.1284003,,,,
The Kerfield Arms,16 Grove Lane,London,SE5 8SY,GB,51.4729515,-0.0899048,https://thecrookedwell.com/,,,Mo-Su closed
The Crown,285 High Street,Sutton,SM1 1LD,GB,51.3681532,-0.195304,https://www.craftunionpubs.com/crown-pub-sutton,Stonegate,,
The Rocket (Student Bar),,London,,GB,51.5516766,-0.1106216,,,,
The Morden Brook,Lower Morden Lane,London,SM4 4SS,GB,51.3910884,-0.2218995,https://www.greeneking.co.uk/pubs/surrey/morden-brook,,,
The Osidge Arms,Osidge Lane,London,N14 5JP,GB,51.6318052,-0.1432225,http://www.theosidgearms.co.uk/,,,
The Duchess & Dressmaker,129-129a High Street,Brentwood,CM14 4RZ,GB,51.6195156,0.298384,https://www.mcmullens.co.uk/local-pub/duchess-dressmaker/,,+44 1277 288880,Mo-Th 10:00-23:00; Fr-Sa 10:00-01:00; Su 10:00-22:00
The George and Dragon,,London,,GB,51.3084043,0.3094908,,,,
Rose and Crown,,London,,GB,51.3082595,0.3102221,,,,
The Thirsty Bear,62 Stamford street,London,SE1 9LX,GB,51.5070706,-0.1081175,https://www.thethirstybear.com/,,,
Old Post Office,4 Passey Place,London,SE9 5DQ,GB,51.4503207,0.0539598,,,,
Rising Sun,,London,,GB,51.6516528,-0.4240702,,,,
The Central Bar,Shepherd's Bush Green,London,W12 8PP,GB,51.5038323,-0.2191034,,,,
Eagle Ale House,,London,,GB,51.4551121,-0.1632003,,,,
The Wandle,332 Garratt Lane,London,SW18 4EJ,GB,51.4428801,-0.1891411,https://www.wandleearlsfield.com/,,+44 20 8874 4209,Mo-Su 12:00-23:00
Halfway House,521 Garratt Lane,London,SW18 4SR,GB,51.4417303,-0.1872736,,Young & Co,,"Mo-Sa 11:00-23:00, Su 11:00-22:30"
The Fox and Goose,,London,,GB,51.5332135,-0.2956664,,,,
OJ's,64-68 High Street,Hornchurch,RM12 4UW,GB,51.562803,0.2166693,,,,
Feeleys,,London,,GB,51.471497,-0.1349448,,,,
The Watchman,184 High Street,New Malden,KT3 4ES,GB,51.3988939,-0.2550754,https://www.jdwetherspoon.com/pubs/all-pubs/england/london/the-watchman-new-malden,,,
The Glasshouse,14 Coombe Road,New Malden,KT3 4QE,GB,51.4043231,-0.2572003,,,,
The Greyhound,Magpie Lane,London,CM13 3DZ,GB,51.5902101,0.3156261,,,,Mo-We 12:00-22:00; Th-Sa 12:00-23:00; Su 12:00-22:00
Clarendon Arms,225 Camberwell New Road,London,SE5 0TH,GB,51.477497,-0.101174,,,,
Green Dragon,,London,,GB,51.6867343,-0.0028825,,,,
Cricketers on the Green,,London,,GB,51.382571,-0.3469651,,,,
The Greyhound,,London,,GB,51.3821089,-0.3472869,,,,
Gorringe Park,29 London Road,London,SW17 9JR,GB,51.4195338,-0.1616491,http://www.gorringeparkpub.com/,Young & Co,,
The Scotsman,96 Scotts Road,Southall,UB2 5DE,GB,51.5020678,-0.3942182,,,,
Lennards Inn,,London,,GB,51.505538,0.2255194,,,,
Stag & Hounds,,London,,GB,51.6354113,-0.0780594,,,,"Mo-Su,PH 11:30-24:00"
The Beehive,,London,,GB,51.634544,-0.0781264,,,,
Sylvan Post,24-28 Dartmouth Road,London,SE23 3XU,GB,51.4380542,-0.0546961,https://sylvanpost.co.uk/,,+44 20 8291 5712,Mo-Sa 12:00-23:00; Su 12:00-22:30
The Queens Head,73 High Street,Orpington,BR6 6BQ,GB,51.35226,0.089809,,,,
The Royal Oak,High Street,Orpington,BR6 6BJ,GB,51.3509742,0.0886972,,,,Mo-We 12:00-22:00; Th-Sa 12:00-23:00; Su 12:00-22:00
Comptons of Soho,51-53 Old Compton Street,London,W1D 6HN,GB,51.5126049,-0.1325151,https://www.comptonsofsoho.co.uk/comptons,Stonegate,,
The Station House,Churchfield Road,London,W3 6BH,GB,51.5087338,-0.2631006,https://www.thestationhousew3.com/,,,
The Bolingbroke,174-172 Northcote Road,London,SW11 6RE,GB,51.4539089,-0.1640944,,,,
The Three Tuns,,London,,GB,51.5148475,-0.1175088,,London School of Economics Students' Union (LSESU),,
The Magpie,64 Thames Street,Sunbury-on-Thames,TW16 6AF,GB,51.4056956,-0.4077703,https://www.magpiesunbury.com/,,+44 1932 782024,
The Open Page,573 Garratt Lane,London,SW18 4ST,GB,51.4398179,-0.1866171,,,,
Slug and Lettuce,184 George Lane,London,E18 1AY,GB,51.5944516,0.0240387,https://www.slugandlettuce.co.uk/south-woodford,,,
The Woodman,50 High Street,Orpington,BR6 7BA,GB,51.3592459,0.0676213,http://www.thewoody.co.uk/,,,
Hennessys,,London,,GB,51.5846669,-0.2796475,,,,
Shinner and Sudtone,67 High Street,London,SM1 1DT,GB,51.3618581,-0.1925404,,,,"Su,Mo 12:00-23:00, Tu-Th 12:00-24:00, Fr,Sa 12:00-01:00"
Ebb & Flow,59-61 High Street,London,SM1 1DT,GB,51.3616662,-0.1924599,http://www.treasurypub.co.uk/,,,
BrewDog,2 Churchill Place,London,E14 5RB,GB,51.5046438,-0.0146973,https://drink.brewdog.com/uk/brewdog-canary-wharf,,+44 20 7513 2417,Mo-Sa 12:00-23:00; Su 12:00-22:00
The Green Dragon,62 Churchgate,London,EN8 9NF,GB,51.7039894,-0.048064,,,,
Tavern Pub,97 Cromwell Road,London,SW7 4DN,GB,51.4945303,-0.1849558,http://www.hikensingtonforumhotel.co.uk/food-drink/the-tavern-a-traditional-english-pub-in-the-heart-of-london/,Holiday Inn,,"Mo-Fr 17:00-02:00; Sa,Su 12:00-02:00"
Ridgeway,,London,,GB,51.6627004,-0.1039305,,,,
Black Swan,Old Lane,Ockham,KT11 1NG,GB,51.3044517,-0.4391472,https://www.blackswanockham.com/,,+44 1932 862364,
The Travellers Friend,496-498 High Road,Woodford Green,IG8 0PN,GB,51.6150506,0.0255395,,,,
The Bull's Head,Laud Street,Croydon,CR0 1SX,GB,51.3695997,-0.1011088,,,,
The Wandle Arms,,London,,GB,51.373983,-0.1083794,,,,
The Surprise,107 Upper Shirley Road,Croydon,CR0 5HF,GB,51.3680407,-0.0536187,,,,
The Jolly Farmer,354 Lewisham High Street,London,,GB,51.4551359,-0.0161035,,,,
The Pelican,45 All Saints Road,London,,GB,51.5188056,-0.2046257,,Allsopp's,,
Oxymoron - The Royal Oak,78 Fitzalan Street,London,SE11 6QU,GB,51.4933071,-0.1131345,,,,closed
Waterman's Arms,10 Water Lane,Richmond,TW9 1TJ,GB,51.4593768,-0.3071316,,,,
Dover Castle,6a Great Dover Street,London,SE1 4XW,GB,51.5004719,-0.0928618,,,,
The Ship,High Street,Ripley,GU23 6AZ,GB,51.300435,-0.4918878,https://theshipripley.co.uk/,,+44 1773 462668,
Islington Townhouse,13 Liverpool Road,London,N1 0RW,GB,51.5337144,-0.1069716,,,,
Balham Bowls Club,7-9 Ramsden Road,London,SW12 8QX,GB,51.4449518,-0.1523815,https://www.balhambowlsclub.com/,,+44 20 8673 4700,Mo-We 16:00-23:00; Th 16:00-00:00; Fr 14:00-01:00; Sa 12:00-01:00; Su 12:00-23:00
George & Dragon,,London,,GB,51.4856569,-0.1993009,,,,
Sports Bar,125 Wembley Park Drive,Wembley,HA9 8HQ,GB,51.5620416,-0.2824529,,,,
The Wembley Tavern,121 Wembley Park Drive,Wembley,HA9 8HG,GB,51.5620416,-0.2826353,,,,
The Tooting Tavern,196 Tooting High Street,London,SW17 0SF,GB,51.4238635,-0.1725702,https://www.thetootingtavern.co.uk,,,"Mo-We 16:00-23:00; Th,Fr 16:00-24:00; Sa,Su 12:00-24:00"
The Bridge House,13 Westbourne Terrace Road,London,,GB,51.5210275,-0.1842132,https://www.thebridgehouselittlevenice.co.uk/#,,,
The Bluecoats Pub,614 High Road,London,N17 9TA,GB,51.5969321,-0.0680521,,,+44 20 8885 6555,"Mo-Th 16:00-23:00; Fr,Sa 12:00-23:00; Su 13:00-22:00"
The Surrey Cricketers,23 West Street,Croydon,CR0 1DJ,GB,51.3680036,-0.101643,,,,
Paya and Horse,181 Battersea Park Road,London,SW11 4LB,GB,51.4758826,-0.1489065,http://www.payaandhorse.com/,,+44 787 066 9043,
Crate Brewery & Pizza,43 White Post Lane,London,E9 5EN,GB,51.5429973,-0.0220788,https://www.cratebrewery.com/,,+44 7834 275687,"Mo-Th,Su 12:00-23:00; Fr-Sa 12:00-01:00"
Pawsons Arms,69 Pawson's Road,Croydon,CR0 2QA,GB,51.3929231,-0.0963685,,,,
The Lion Inn,182 Pawson's Road,Croydon,CR0 2QD,GB,51.3912936,-0.0999382,,,,
Bricklayers Arms,High Road,London,,GB,51.6059178,-0.0683957,,,,
the victory,,London,,GB,51.6391832,-0.3085949,,,,
Bosleys,107-115 The Parade,Watford,WD17 1LU,GB,51.6587586,-0.4005113,https://www.weareyates.co.uk/watford,,,
Friend at Hand,2-4 Herbrand Street,London,WC1N 1HX,GB,51.5228503,-0.1245944,https://www.greeneking.co.uk/pubs/greater-london/friend-at-hand,,+44 20 7837 5524,Mo-Su 11:00-23:00
Dicey Reilly's,161 Silver Street,London,N18 1PY,GB,51.6164794,-0.0771939,,,,
The Bohemia,762 High Road,London,N12 9QH,GB,51.6153156,-0.176463,https://www.thebohemia.co.uk/,,,
Nascot Arms,11 Stamford Road,Watford,WD17 4QS,GB,51.665155,-0.4017607,,,,
Oddfellows Arms,2 Waxwell Lane,Pinner,HA5 3EN,GB,51.5956698,-0.3846571,http://www.oddfellowspinner.co.uk/,,+44 20 8866 7372,"Mo-Th 17:00-23:00; Fr 17:00-24:00; Sa 12:00-15:00,17:00-24:00; Su 12:00-23:00"
The Black Horse,1018 Harrow Road,Wembley,HA0 2QP,GB,51.5605406,-0.3293318,https://www.emberinns.co.uk/nationalsearch/london/the-black-horse-wembley#/,,,
The Greyhound,313-315 Kirkdale,London,SE26 4QB,GB,51.4270033,-0.0555319,https://thegreyhoundsydenham.co.uk/,,+44 20 8659 0231,Mo-Th 12:00-23:00; Fr-Sa 12:00-00:00; Su 12:00-22:00
The Orange Tree,67 Orange Tree Hill,London,RM4 1PJ,GB,51.6137042,0.1809886,,,,
The Case Is Altered,High Road Eastcote,Pinner,HA5 2EW,GB,51.5888434,-0.4036155,https://caseisalteredpinner.co.uk/,,+44 20 8866 0476,Su-Th 11:00-23:00; Fr-Sa 11:00-00:00
Old Oak Tree,The Common,Southall,UB2 5PJ,GB,51.49518,-0.3879224,,,,
Doyle's,155 Bramley Road,London,N14 4XA,GB,51.6483415,-0.130235,,,+44 20 3887 0360,"Su-Th 12:00-23:00;Fr,Sa 12:00-24:00"
the fléadh,278 Preston Road,Harrow,HA3 0QA,GB,51.5728788,-0.2944101,,,,
The Cock Tavern,"269 Hertford Road, Edmonton",London,,GB,51.633359,-0.0540008,,,,
Prince Alfred,178 Sydenham Road,London,SE26 5RP,GB,51.4257348,-0.0436314,https://thealfredpub.co.uk/,,+44 20 8778 2589,Mo-We 11:00-23:00; Th-Sa 11:00-00:00; Su 12:00-22:30
The King William,192 Hertford Road,London,,GB,51.6300446,-0.0558813,,,,
Draughts,34 Eltham High Street,London,SE9 1BT,GB,51.4510468,0.0501424,,,,
The Scottish Stores,2-4 Caledonian Road,London,N1 9DT,GB,51.5310789,-0.1208228,https://www.thescottishstores.co.uk/,,,
